{"https://api.yelp.com/v3/businesses/searchlatitude-42.4607319_limit-10_longitude--83.1352843_sort_by-distance_term-restaurants": {"businesses": [{"id": "V2puYWfk2LgE8kRN36dMfg", "alias": "m-c-wiches-ferndale", "name": "M C Wiches", "image_url": "https://s3-media3.fl.yelpcdn.com/bphoto/SwtAEk4QL5R0fV37mFdmcA/o.jpg", "is_closed": false, "url": "https://www.yelp.com/biz/m-c-wiches-ferndale?adjust_creative=I9B0QSjMxHLCA6zVxBoDNw&utm_campaign=yelp_api_v3&utm_medium=api_v3_business_search&utm_source=I9B0QSjMxHLCA6zVxBoDNw", "review_count": 62, "categories": [{"alias": "sandwiches", "title": "Sandwiches"}], "rating": 4.5, "coordinates": {"latitude": 42.4607202, "longitude": -83.1356814}, "transactions": ["delivery", "pickup"], "price": "$", "location": {"address1": "172 W Nine Mile Rd", "address2": null, "address3": "", "city": "Ferndale", "zip_code": "48220", "country": "US", "state": "MI", "display_address": ["172 W Nine Mile Rd", "Ferndale, MI 48220"]}, "phone": "+12484399424", "display_phone": "(248) 439-9424", "distance": 52.49709856464514}, {"id": "ELZcYK_eyLbjqoJqMMjz9Q", "alias": "d-vine-cookies-ferndale", "name": "D'vine Cookies", "image_url": "https://s3-media2.fl.yelpcdn.com/bphoto/eARWFyMZnnHgntNeBGA-Tw/o.jpg", "is_closed": false, "url": "https://www.yelp.com/biz/d-vine-cookies-ferndale?adjust_creative=I9B0QSjMxHLCA6zVxBoDNw&utm_campaign=yelp_api_v3&utm_medium=api_v3_business_search&utm_source=I9B0QSjMxHLCA6zVxBoDNw", "review_count": 1, "categories": [{"alias": "bakeries", "title": "Bakeries"}, {"alias": "vegan", "title": "Vegan"}], "rating": 5.0, "coordinates": {"latitude": 42.4608764648438, "longitude": -83.1344528198242}, "transactions": [], "location": {"address1": "", "address2": null, "address3": "", "city": "Ferndale", "zip_code": "48220", "country": "US", "state": "MI", "display_address": ["Ferndale, MI 48220"]}, "phone": "+18443846300", "display_phone": "(844) 384-6300", "distance": 54.49158567526503}, {"id": "qVb-pQOXbfbG9g6NUqs_pA", "alias": "star-of-india-ferndale", "name": "Star of India", "image_url": "https://s3-media4.fl.yelpcdn.com/bphoto/iqJsOU45zb4th1OYx6Uldg/o.jpg", "is_closed": false, "url": "https://www.yelp.com/biz/star-of-india-ferndale?adjust_creative=I9B0QSjMxHLCA6zVxBoDNw&utm_campaign=yelp_api_v3&utm_medium=api_v3_business_search&utm_source=I9B0QSjMxHLCA6zVxBoDNw", "review_count": 98, "categories": [{"alias": "indpak", "title": "Indian"}], "rating": 3.0, "coordinates": {"latitude": 42.460717, "longitude": -83.1358406}, "transactions": ["delivery", "pickup"], "price": "$$", "location": {"address1": "180 W 9 Mile Rd", "address2": "", "address3": "", "city": "Ferndale", "zip_code": "48220", "country": "US", "state": "MI", "display_address": ["180 W 9 Mile Rd", "Ferndale, MI 48220"]}, "phone": "+12485465996", "display_phone": "(248) 546-5996", "distance": 57.7133875374886}, {"id": "6sOVxeVw0Y_Bo4__0WnXdA", "alias": "jps-salgados-ferndale", "name": "JP's Salgados", "image_url": "https://s3-media1.fl.yelpcdn.com/bphoto/K8cpM6IxJoXoO1HH-Q6-Kg/o.jpg", "is_closed": false, "url": "https://www.yelp.com/biz/jps-salgados-ferndale?adjust_creative=I9B0QSjMxHLCA6zVxBoDNw&utm_campaign=yelp_api_v3&utm_medium=api_v3_business_search&utm_source=I9B0QSjMxHLCA6zVxBoDNw", "review_count": 1, "categories": [{"alias": "brazilian", "title": "Brazilian"}, {"alias": "streetvendors", "title": "Street Vendors"}, {"alias": "importedfood", "title": "Imported Food"}], "rating": 3.0, "coordinates": {"latitude": 42.460255514672, "longitude": -83.1360293626419}, "transactions": [], "location": {"address1": "167 W Troy St", "address2": "", "address3": "", "city": "Ferndale", "zip_code": "48220", "country": "US", "state": "MI", "display_address": ["167 W Troy St", "Ferndale, MI 48220"]}, "phone": "+17346263271", "display_phone": "(734) 626-3271", "distance": 80.88031384632606}, {"id": "FGPQd8GdG1zy7X0r1kaDIg", "alias": "inyo-ferndale", "name": "Inyo", "image_url": "https://s3-media2.fl.yelpcdn.com/bphoto/J9w7RJFmzfUu3f4n_icRlA/o.jpg", "is_closed": false, "url": "https://www.yelp.com/biz/inyo-ferndale?adjust_creative=I9B0QSjMxHLCA6zVxBoDNw&utm_campaign=yelp_api_v3&utm_medium=api_v3_business_search&utm_source=I9B0QSjMxHLCA6zVxBoDNw", "review_count": 265, "categories": [{"alias": "asianfusion", "title": "Asian Fusion"}], "rating": 3.5, "coordinates": {"latitude": 42.461029663682, "longitude": -83.1352065503597}, "transactions": [], "price": "$$", "location": {"address1": "22871 Woodward Ave", "address2": "", "address3": "", "city": "Ferndale", "zip_code": "48220", "country": "US", "state": "MI", "display_address": ["22871 Woodward Ave", "Ferndale, MI 48220"]}, "phone": "+12485439500", "display_phone": "(248) 543-9500", "distance": 84.93648738196215}, {"id": "8dHUKuzTw9lseJKRXugXFw", "alias": "the-oakland-ferndale-2", "name": "The Oakland", "image_url": "https://s3-media1.fl.yelpcdn.com/bphoto/nLWkL5iNsaXnLJrBcIdojg/o.jpg", "is_closed": false, "url": "https://www.yelp.com/biz/the-oakland-ferndale-2?adjust_creative=I9B0QSjMxHLCA6zVxBoDNw&utm_campaign=yelp_api_v3&utm_medium=api_v3_business_search&utm_source=I9B0QSjMxHLCA6zVxBoDNw", "review_count": 257, "categories": [{"alias": "newamerican", "title": "American (New)"}, {"alias": "lounges", "title": "Lounges"}, {"alias": "cocktailbars", "title": "Cocktail Bars"}], "rating": 4.5, "coordinates": {"latitude": 42.460653, "longitude": -83.136402}, "transactions": ["restaurant_reservation"], "price": "$$", "location": {"address1": "201 W 9 Mile Rd", "address2": "", "address3": "", "city": "Ferndale", "zip_code": "48220", "country": "US", "state": "MI", "display_address": ["201 W 9 Mile Rd", "Ferndale, MI 48220"]}, "phone": "+12482915295", "display_phone": "(248) 291-5295", "distance": 92.10698466192318}, {"id": "s6NLs1dCb8ohGvWfmqyppQ", "alias": "one-eyed-bettys-ferndale", "name": "One-Eyed Betty's", "image_url": "https://s3-media3.fl.yelpcdn.com/bphoto/GAaHRBZgMyec6-HFsKoGxQ/o.jpg", "is_closed": false, "url": "https://www.yelp.com/biz/one-eyed-bettys-ferndale?adjust_creative=I9B0QSjMxHLCA6zVxBoDNw&utm_campaign=yelp_api_v3&utm_medium=api_v3_business_search&utm_source=I9B0QSjMxHLCA6zVxBoDNw", "review_count": 931, "categories": [{"alias": "bars", "title": "Bars"}, {"alias": "tradamerican", "title": "American (Traditional)"}], "rating": 4.0, "coordinates": {"latitude": 42.4599825691106, "longitude": -83.1358069223363}, "transactions": [], "price": "$$", "location": {"address1": "175 W Troy St", "address2": "", "address3": "", "city": "Ferndale", "zip_code": "48220", "country": "US", "state": "MI", "display_address": ["175 W Troy St", "Ferndale, MI 48220"]}, "phone": "+12488086633", "display_phone": "(248) 808-6633", "distance": 93.70461274000756}, {"id": "EWQiie9GDff5vdUDSDBdVw", "alias": "imperial-ferndale", "name": "Imperial", "image_url": "https://s3-media2.fl.yelpcdn.com/bphoto/TBfXsIVly1o5pA3eknzTQQ/o.jpg", "is_closed": false, "url": "https://www.yelp.com/biz/imperial-ferndale?adjust_creative=I9B0QSjMxHLCA6zVxBoDNw&utm_campaign=yelp_api_v3&utm_medium=api_v3_business_search&utm_source=I9B0QSjMxHLCA6zVxBoDNw", "review_count": 941, "categories": [{"alias": "bars", "title": "Bars"}, {"alias": "tacos", "title": "Tacos"}], "rating": 4.0, "coordinates": {"latitude": 42.4610783377507, "longitude": -83.1342238534765}, "transactions": [], "price": "$$", "location": {"address1": "22828 Woodward Ave", "address2": "", "address3": "", "city": "Ferndale", "zip_code": "48220", "country": "US", "state": "MI", "display_address": ["22828 Woodward Ave", "Ferndale, MI 48220"]}, "phone": "+12488508060", "display_phone": "(248) 850-8060", "distance": 95.13898057425698}, {"id": "lSr8zKZBf1g9nHXaHOtAAA", "alias": "howes-bayou-ferndale", "name": "Howe's Bayou", "image_url": "https://s3-media1.fl.yelpcdn.com/bphoto/bRcJqWxUSb9CePYWLYNJBw/o.jpg", "is_closed": false, "url": "https://www.yelp.com/biz/howes-bayou-ferndale?adjust_creative=I9B0QSjMxHLCA6zVxBoDNw&utm_campaign=yelp_api_v3&utm_medium=api_v3_business_search&utm_source=I9B0QSjMxHLCA6zVxBoDNw", "review_count": 248, "categories": [{"alias": "cajun", "title": "Cajun/Creole"}, {"alias": "bbq", "title": "Barbeque"}], "rating": 3.5, "coordinates": {"latitude": 42.4612922668457, "longitude": -83.1342697143555}, "transactions": ["delivery"], "price": "$$", "location": {"address1": "22848 Woodward Ave", "address2": "", "address3": "", "city": "Ferndale", "zip_code": "48220", "country": "US", "state": "MI", "display_address": ["22848 Woodward Ave", "Ferndale, MI 48220"]}, "phone": "+12486917145", "display_phone": "(248) 691-7145", "distance": 104.08863935076775}, {"id": "ABdTLz0ypsgucJL5KgYYNw", "alias": "hambo-coney-island-ferndale", "name": "Hambo Coney Island", "image_url": "https://s3-media4.fl.yelpcdn.com/bphoto/G1kZa3nsKOrR6c-ci_Dkrw/o.jpg", "is_closed": false, "url": "https://www.yelp.com/biz/hambo-coney-island-ferndale?adjust_creative=I9B0QSjMxHLCA6zVxBoDNw&utm_campaign=yelp_api_v3&utm_medium=api_v3_business_search&utm_source=I9B0QSjMxHLCA6zVxBoDNw", "review_count": 64, "categories": [{"alias": "diners", "title": "Diners"}, {"alias": "hotdog", "title": "Hot Dogs"}, {"alias": "tradamerican", "title": "American (Traditional)"}], "rating": 4.0, "coordinates": {"latitude": 42.46165, "longitude": -83.13466}, "transactions": [], "price": "$", "location": {"address1": "22900 Woodward Ave", "address2": "", "address3": "", "city": "Ferndale", "zip_code": "48220", "country": "US", "state": "MI", "display_address": ["22900 Woodward Ave", "Ferndale, MI 48220"]}, "phone": "+12484149400", "display_phone": "(248) 414-9400", "distance": 112.80630376867065}], "total": 230, "region": {"center": {"longitude": -83.1352843, "latitude": 42.4607319}}}, "https://api.yelp.com/v3/businesses/searchlatitude-42.212067_limit-10_longitude--83.794632_sort_by-distance_term-restaurants": {"businesses": [{"id": "p4Nad3u6PD03cJEn8VtiEw", "alias": "tippins-market-ann-arbor", "name": "Tippins Market", "image_url": "https://s3-media1.fl.yelpcdn.com/bphoto/1nuDhWMz_utMksnDAcbpTA/o.jpg", "is_closed": false, "url": "https://www.yelp.com/biz/tippins-market-ann-arbor?adjust_creative=I9B0QSjMxHLCA6zVxBoDNw&utm_campaign=yelp_api_v3&utm_medium=api_v3_business_search&utm_source=I9B0QSjMxHLCA6zVxBoDNw", "review_count": 31, "categories": [{"alias": "beer_and_wine", "title": "Beer, Wine & Spirits"}, {"alias": "pizza", "title": "Pizza"}], "rating": 4.0, "coordinates": {"latitude": 42.214255, "longitude": -83.7966409}, "transactions": [], "price": "$$", "location": {"address1": "4845 Ann Arbor Saline Rd", "address2": "", "address3": "", "city": "Ann Arbor", "zip_code": "48103", "country": "US", "state": "MI", "display_address": ["4845 Ann Arbor Saline Rd", "Ann Arbor, MI 48103"]}, "phone": "+17346653690", "display_phone": "(734) 665-3690", "distance": 294.2183322565745}, {"id": "NxJEX3U_rCHMZn8OJKU-nQ", "alias": "five-guys-pittsfield-2", "name": "Five Guys", "image_url": "https://s3-media1.fl.yelpcdn.com/bphoto/IBEVlkoeBJIrhdKoEJvGPg/o.jpg", "is_closed": false, "url": "https://www.yelp.com/biz/five-guys-pittsfield-2?adjust_creative=I9B0QSjMxHLCA6zVxBoDNw&utm_campaign=yelp_api_v3&utm_medium=api_v3_business_search&utm_source=I9B0QSjMxHLCA6zVxBoDNw", "review_count": 20, "categories": [{"alias": "burgers", "title": "Burgers"}, {"alias": "hotdogs", "title": "Fast Food"}], "rating": 3.5, "coordinates": {"latitude": 42.240494, "longitude": -83.769077}, "transactions": [], "price": "$", "location": {"address1": "3155 Ann Arbor Saline Rd", "address2": "", "address3": "", "city": "Pittsfield", "zip_code": "48103", "country": "US", "state": "MI", "display_address": ["3155 Ann Arbor Saline Rd", "Pittsfield, MI 48103"]}, "phone": "+17349975050", "display_phone": "(734) 997-5050", "distance": 3797.2477202120535}, {"id": "0BrlCLgmoaBJA4vSkPEyyg", "alias": "pancheros-mexican-grill-pittsfield-township", "name": "Pancheros Mexican Grill", "image_url": "https://s3-media1.fl.yelpcdn.com/bphoto/aQA3Y83m9ZrnJnQvbdKFbw/o.jpg", "is_closed": false, "url": "https://www.yelp.com/biz/pancheros-mexican-grill-pittsfield-township?adjust_creative=I9B0QSjMxHLCA6zVxBoDNw&utm_campaign=yelp_api_v3&utm_medium=api_v3_business_search&utm_source=I9B0QSjMxHLCA6zVxBoDNw", "review_count": 32, "categories": [{"alias": "mexican", "title": "Mexican"}], "rating": 2.5, "coordinates": {"latitude": 42.2406423898352, "longitude": -83.7690625832702}, "transactions": [], "price": "$", "location": {"address1": "3155 Ann Arbor Saline Rd", "address2": "", "address3": "", "city": "Pittsfield Township", "zip_code": "48104", "country": "US", "state": "MI", "display_address": ["3155 Ann Arbor Saline Rd", "Pittsfield Township, MI 48104"]}, "phone": "+17343324640", "display_phone": "(734) 332-4640", "distance": 3811.6480769594714}, {"id": "oM80Q6Da6lCFPgEgJ3j9LA", "alias": "texas-roadhouse-ann-arbor", "name": "Texas Roadhouse", "image_url": "https://s3-media1.fl.yelpcdn.com/bphoto/mHirW2faMGDoMLNU7cK-Kw/o.jpg", "is_closed": false, "url": "https://www.yelp.com/biz/texas-roadhouse-ann-arbor?adjust_creative=I9B0QSjMxHLCA6zVxBoDNw&utm_campaign=yelp_api_v3&utm_medium=api_v3_business_search&utm_source=I9B0QSjMxHLCA6zVxBoDNw", "review_count": 50, "categories": [{"alias": "steak", "title": "Steakhouses"}, {"alias": "bbq", "title": "Barbeque"}], "rating": 3.5, "coordinates": {"latitude": 42.2414757973252, "longitude": -83.7704740092158}, "transactions": [], "price": "$$", "location": {"address1": "3133 Ann Arbor Saline Rd", "address2": "", "address3": "", "city": "Ann Arbor", "zip_code": "48103", "country": "US", "state": "MI", "display_address": ["3133 Ann Arbor Saline Rd", "Ann Arbor, MI 48103"]}, "phone": "+17343328850", "display_phone": "(734) 332-8850", "distance": 3827.5656311087196}, {"id": "cLiEM06kVgMX7k2CJ10cqw", "alias": "outback-steakhouse-ann-arbor", "name": "Outback Steakhouse", "image_url": "https://s3-media3.fl.yelpcdn.com/bphoto/NcksbuLs9h_0P49xQkjquA/o.jpg", "is_closed": false, "url": "https://www.yelp.com/biz/outback-steakhouse-ann-arbor?adjust_creative=I9B0QSjMxHLCA6zVxBoDNw&utm_campaign=yelp_api_v3&utm_medium=api_v3_business_search&utm_source=I9B0QSjMxHLCA6zVxBoDNw", "review_count": 63, "categories": [{"alias": "steak", "title": "Steakhouses"}], "rating": 3.0, "coordinates": {"latitude": 42.241490053018, "longitude": -83.7704028846727}, "transactions": [], "price": "$$", "location": {"address1": "3173 Oak Valley Dr", "address2": "", "address3": "", "city": "Ann Arbor", "zip_code": "48103", "country": "US", "state": "MI", "display_address": ["3173 Oak Valley Dr", "Ann Arbor, MI 48103"]}, "phone": "+17346627400", "display_phone": "(734) 662-7400", "distance": 3831.965531094785}, {"id": "3T0DimQdBFcaqfDzOvnSBg", "alias": "buddys-restaurant-pizzeria-ann-arbor", "name": "Buddy's Restaurant Pizzeria", "image_url": "https://s3-media1.fl.yelpcdn.com/bphoto/3oyc3aJj7fnsbWS6iNHfdQ/o.jpg", "is_closed": false, "url": "https://www.yelp.com/biz/buddys-restaurant-pizzeria-ann-arbor?adjust_creative=I9B0QSjMxHLCA6zVxBoDNw&utm_campaign=yelp_api_v3&utm_medium=api_v3_business_search&utm_source=I9B0QSjMxHLCA6zVxBoDNw", "review_count": 47, "categories": [{"alias": "pizza", "title": "Pizza"}], "rating": 3.5, "coordinates": {"latitude": 42.2407680879754, "longitude": -83.768447405909}, "transactions": [], "price": "$$", "location": {"address1": "3153 Ann Arbor-Saline Rd", "address2": "", "address3": null, "city": "Ann Arbor", "zip_code": "48108", "country": "US", "state": "MI", "display_address": ["3153 Ann Arbor-Saline Rd", "Ann Arbor, MI 48108"]}, "phone": "+17347929130", "display_phone": "(734) 792-9130", "distance": 3851.431175692098}, {"id": "y3dVChSa5c0m8jAQJvH6Vg", "alias": "arirang-ann-arbor", "name": "Arirang", "image_url": "https://s3-media2.fl.yelpcdn.com/bphoto/WdbwIlqgiQYFA9qqpAf6eg/o.jpg", "is_closed": false, "url": "https://www.yelp.com/biz/arirang-ann-arbor?adjust_creative=I9B0QSjMxHLCA6zVxBoDNw&utm_campaign=yelp_api_v3&utm_medium=api_v3_business_search&utm_source=I9B0QSjMxHLCA6zVxBoDNw", "review_count": 151, "categories": [{"alias": "korean", "title": "Korean"}], "rating": 4.0, "coordinates": {"latitude": 42.2407785, "longitude": -83.7707544}, "transactions": [], "price": "$$", "location": {"address1": "3135 Oak Valley Dr", "address2": "", "address3": "", "city": "Ann Arbor", "zip_code": "48103", "country": "US", "state": "MI", "display_address": ["3135 Oak Valley Dr", "Ann Arbor, MI 48103"]}, "phone": "+17342225959", "display_phone": "(734) 222-5959", "distance": 3874.8481697903585}, {"id": "0dDox4bIFcjwz5u0cb6EwQ", "alias": "bob-evans-pittsfield-township", "name": "Bob Evans", "image_url": "https://s3-media1.fl.yelpcdn.com/bphoto/AMq-dvGCyHtRhZYaC9ewHQ/o.jpg", "is_closed": false, "url": "https://www.yelp.com/biz/bob-evans-pittsfield-township?adjust_creative=I9B0QSjMxHLCA6zVxBoDNw&utm_campaign=yelp_api_v3&utm_medium=api_v3_business_search&utm_source=I9B0QSjMxHLCA6zVxBoDNw", "review_count": 23, "categories": [{"alias": "tradamerican", "title": "American (Traditional)"}, {"alias": "breakfast_brunch", "title": "Breakfast & Brunch"}, {"alias": "comfortfood", "title": "Comfort Food"}], "rating": 2.5, "coordinates": {"latitude": 42.2410895798236, "longitude": -83.7683817185462}, "transactions": ["delivery", "pickup"], "price": "$", "location": {"address1": "3143 Ann Arbor Saline Rd", "address2": "Ste A", "address3": "", "city": "Pittsfield Township", "zip_code": "48104", "country": "US", "state": "MI", "display_address": ["3143 Ann Arbor Saline Rd", "Ste A", "Pittsfield Township, MI 48104"]}, "phone": "+17349130359", "display_phone": "(734) 913-0359", "distance": 3884.1089524365966}, {"id": "KoGQMYU8xiSjwGh4V9PBVQ", "alias": "godaiko-japanese-restaurant-ann-arbor", "name": "Godaiko Japanese Restaurant", "image_url": "https://s3-media3.fl.yelpcdn.com/bphoto/OeO7IZo2_7p7KjonUIXlcw/o.jpg", "is_closed": false, "url": "https://www.yelp.com/biz/godaiko-japanese-restaurant-ann-arbor?adjust_creative=I9B0QSjMxHLCA6zVxBoDNw&utm_campaign=yelp_api_v3&utm_medium=api_v3_business_search&utm_source=I9B0QSjMxHLCA6zVxBoDNw", "review_count": 113, "categories": [{"alias": "japanese", "title": "Japanese"}, {"alias": "sushi", "title": "Sushi Bars"}], "rating": 3.0, "coordinates": {"latitude": 42.2409499, "longitude": -83.7708776}, "transactions": [], "price": "$$", "location": {"address1": "3115 Oak Valley Dr", "address2": "", "address3": "", "city": "Ann Arbor", "zip_code": "48103", "country": "US", "state": "MI", "display_address": ["3115 Oak Valley Dr", "Ann Arbor, MI 48103"]}, "phone": "+17349302880", "display_phone": "(734) 930-2880", "distance": 3907.0129522947127}, {"id": "lW8H1St3tZRz-Gj55Y8ArQ", "alias": "jets-pizza-ann-arbor", "name": "Jet's Pizza", "image_url": "https://s3-media4.fl.yelpcdn.com/bphoto/lvWWdhNmO17gR323h5OATQ/o.jpg", "is_closed": false, "url": "https://www.yelp.com/biz/jets-pizza-ann-arbor?adjust_creative=I9B0QSjMxHLCA6zVxBoDNw&utm_campaign=yelp_api_v3&utm_medium=api_v3_business_search&utm_source=I9B0QSjMxHLCA6zVxBoDNw", "review_count": 20, "categories": [{"alias": "pizza", "title": "Pizza"}], "rating": 3.0, "coordinates": {"latitude": 42.242235532977, "longitude": -83.7699348609999}, "transactions": [], "price": "$$", "location": {"address1": "3127 Oak Valley Dr", "address2": "", "address3": "", "city": "Ann Arbor", "zip_code": "48103", "country": "US", "state": "MI", "display_address": ["3127 Oak Valley Dr", "Ann Arbor, MI 48103"]}, "phone": "+17342227544", "display_phone": "(734) 222-7544", "distance": 3922.8090865102063}], "total": 19, "region": {"center": {"longitude": -83.794632, "latitude": 42.212067}}}, "https://api.yelp.com/v3/businesses/searchlatitude-42.28392119999999_limit-10_longitude--83.7464536_sort_by-distance_term-restaurants": {"businesses": [{"id": "5tA21JTO3xKfAI_NYCIJqg", "alias": "teriyaki-time-ann-arbor", "name": "Teriyaki Time", "image_url": "https://s3-media1.fl.yelpcdn.com/bphoto/mUoY5xsV-jk4sxfWFYvbKQ/o.jpg", "is_closed": false, "url": "https://www.yelp.com/biz/teriyaki-time-ann-arbor?adjust_creative=I9B0QSjMxHLCA6zVxBoDNw&utm_campaign=yelp_api_v3&utm_medium=api_v3_business_search&utm_source=I9B0QSjMxHLCA6zVxBoDNw", "review_count": 46, "categories": [{"alias": "japanese", "title": "Japanese"}, {"alias": "korean", "title": "Korean"}, {"alias": "asianfusion", "title": "Asian Fusion"}], "rating": 3.5, "coordinates": {"latitude": 42.2836799, "longitude": -83.74608}, "transactions": ["delivery"], "price": "$", "location": {"address1": "314 Detroit St", "address2": "", "address3": "", "city": "Ann Arbor", "zip_code": "48104", "country": "US", "state": "MI", "display_address": ["314 Detroit St", "Ann Arbor, MI 48104"]}, "phone": "+17349292272", "display_phone": "(734) 929-2272", "distance": 42.565472695650435}, {"id": "18NlgiRTcSo4NNsM_xs-OA", "alias": "kosmo-ann-arbor", "name": "Kosmo", "image_url": "https://s3-media3.fl.yelpcdn.com/bphoto/-0wIrYQz7xfSGl2BD4TUJw/o.jpg", "is_closed": false, "url": "https://www.yelp.com/biz/kosmo-ann-arbor?adjust_creative=I9B0QSjMxHLCA6zVxBoDNw&utm_campaign=yelp_api_v3&utm_medium=api_v3_business_search&utm_source=I9B0QSjMxHLCA6zVxBoDNw", "review_count": 111, "categories": [{"alias": "korean", "title": "Korean"}, {"alias": "tradamerican", "title": "American (Traditional)"}, {"alias": "sandwiches", "title": "Sandwiches"}], "rating": 3.5, "coordinates": {"latitude": 42.2843231, "longitude": -83.7460385}, "transactions": [], "price": "$", "location": {"address1": "407 N 5th Ave", "address2": "Fl 1", "address3": "", "city": "Ann Arbor", "zip_code": "48104", "country": "US", "state": "MI", "display_address": ["407 N 5th Ave", "Fl 1", "Ann Arbor, MI 48104"]}, "phone": "+17346684070", "display_phone": "(734) 668-4070", "distance": 53.928872871986755}, {"id": "XFImIH0ZKR3wTxKpDevhcQ", "alias": "detroit-street-filling-station-ann-arbor", "name": "Detroit Street Filling Station", "image_url": "https://s3-media1.fl.yelpcdn.com/bphoto/k2DHEADBbJ6wFBp3GTZkSA/o.jpg", "is_closed": false, "url": "https://www.yelp.com/biz/detroit-street-filling-station-ann-arbor?adjust_creative=I9B0QSjMxHLCA6zVxBoDNw&utm_campaign=yelp_api_v3&utm_medium=api_v3_business_search&utm_source=I9B0QSjMxHLCA6zVxBoDNw", "review_count": 48, "categories": [{"alias": "vegan", "title": "Vegan"}, {"alias": "jazzandblues", "title": "Jazz & Blues"}, {"alias": "vegetarian", "title": "Vegetarian"}], "rating": 3.5, "coordinates": {"latitude": 42.28333, "longitude": -83.7463099}, "transactions": [], "price": "$$", "location": {"address1": "300 Detroit St", "address2": null, "address3": "", "city": "Ann Arbor", "zip_code": "48104", "country": "US", "state": "MI", "display_address": ["300 Detroit St", "Ann Arbor, MI 48104"]}, "phone": "+17342242161", "display_phone": "(734) 224-2161", "distance": 61.26524359238311}, {"id": "zGy1gswa52Df4FT4bDzlZg", "alias": "monahans-seafood-market-ann-arbor", "name": "Monahan's Seafood Market", "image_url": "https://s3-media4.fl.yelpcdn.com/bphoto/hH_ctnOLidc_Fscy5VgC-A/o.jpg", "is_closed": false, "url": "https://www.yelp.com/biz/monahans-seafood-market-ann-arbor?adjust_creative=I9B0QSjMxHLCA6zVxBoDNw&utm_campaign=yelp_api_v3&utm_medium=api_v3_business_search&utm_source=I9B0QSjMxHLCA6zVxBoDNw", "review_count": 153, "categories": [{"alias": "seafood", "title": "Seafood"}, {"alias": "seafoodmarkets", "title": "Seafood Markets"}], "rating": 4.5, "coordinates": {"latitude": 42.2843246, "longitude": -83.7460403}, "transactions": [], "price": "$$", "location": {"address1": "407 N 5th Ave", "address2": "", "address3": "", "city": "Ann Arbor", "zip_code": "48104", "country": "US", "state": "MI", "display_address": ["407 N 5th Ave", "Ann Arbor, MI 48104"]}, "phone": "+17346625118", "display_phone": "(734) 662-5118", "distance": 64.83746333141022}, {"id": "3A7oiinFFh7yJ3TtU-8cDQ", "alias": "the-lunch-room-ann-arbor-4", "name": "The Lunch Room", "image_url": "https://s3-media1.fl.yelpcdn.com/bphoto/sR2_GPjaiUrfFa8yZMfI3g/o.jpg", "is_closed": false, "url": "https://www.yelp.com/biz/the-lunch-room-ann-arbor-4?adjust_creative=I9B0QSjMxHLCA6zVxBoDNw&utm_campaign=yelp_api_v3&utm_medium=api_v3_business_search&utm_source=I9B0QSjMxHLCA6zVxBoDNw", "review_count": 345, "categories": [{"alias": "vegan", "title": "Vegan"}, {"alias": "diners", "title": "Diners"}, {"alias": "bars", "title": "Bars"}], "rating": 4.5, "coordinates": {"latitude": 42.2845117547417, "longitude": -83.7464183806924}, "transactions": [], "price": "$$", "location": {"address1": "407 N 5th Ave", "address2": "", "address3": "", "city": "Ann Arbor", "zip_code": "48104", "country": "US", "state": "MI", "display_address": ["407 N 5th Ave", "Ann Arbor, MI 48104"]}, "phone": "+17342248859", "display_phone": "(734) 224-8859", "distance": 65.73050244782382}, {"id": "3r_kPEIETjPZtXpSeVnpVQ", "alias": "miss-kim-ann-arbor", "name": "Miss Kim", "image_url": "https://s3-media2.fl.yelpcdn.com/bphoto/vD_mUDCqc6ztPMuELP3F7Q/o.jpg", "is_closed": false, "url": "https://www.yelp.com/biz/miss-kim-ann-arbor?adjust_creative=I9B0QSjMxHLCA6zVxBoDNw&utm_campaign=yelp_api_v3&utm_medium=api_v3_business_search&utm_source=I9B0QSjMxHLCA6zVxBoDNw", "review_count": 86, "categories": [{"alias": "korean", "title": "Korean"}, {"alias": "tapasmallplates", "title": "Tapas/Small Plates"}], "rating": 4.0, "coordinates": {"latitude": 42.2845916111551, "longitude": -83.7464769846905}, "transactions": [], "price": "$$", "location": {"address1": "415 N 5th Ave", "address2": "", "address3": null, "city": "Ann Arbor", "zip_code": "48104", "country": "US", "state": "MI", "display_address": ["415 N 5th Ave", "Ann Arbor, MI 48104"]}, "phone": "+17342750099", "display_phone": "(734) 275-0099", "distance": 74.57105367173533}, {"id": "ZHjGy7QUWIHVS66PxTYD1g", "alias": "aut-bar-ann-arbor", "name": "Aut Bar", "image_url": "https://s3-media3.fl.yelpcdn.com/bphoto/kbqNmqYdocHJL6OV2_3JLQ/o.jpg", "is_closed": false, "url": "https://www.yelp.com/biz/aut-bar-ann-arbor?adjust_creative=I9B0QSjMxHLCA6zVxBoDNw&utm_campaign=yelp_api_v3&utm_medium=api_v3_business_search&utm_source=I9B0QSjMxHLCA6zVxBoDNw", "review_count": 153, "categories": [{"alias": "gaybars", "title": "Gay Bars"}, {"alias": "mexican", "title": "Mexican"}], "rating": 3.5, "coordinates": {"latitude": 42.28378, "longitude": -83.74742}, "transactions": [], "price": "$$", "location": {"address1": "315 Braun Ct", "address2": "", "address3": "", "city": "Ann Arbor", "zip_code": "48104", "country": "US", "state": "MI", "display_address": ["315 Braun Ct", "Ann Arbor, MI 48104"]}, "phone": "+17349943677", "display_phone": "(734) 994-3677", "distance": 83.33329228912683}, {"id": "-CFhLSef4gyu3KMgiA8A1w", "alias": "no-thai-ann-arbor-6", "name": "No Thai!", "image_url": "https://s3-media2.fl.yelpcdn.com/bphoto/D0zMAfOAN7ZDvv3ZC_Lm6w/o.jpg", "is_closed": false, "url": "https://www.yelp.com/biz/no-thai-ann-arbor-6?adjust_creative=I9B0QSjMxHLCA6zVxBoDNw&utm_campaign=yelp_api_v3&utm_medium=api_v3_business_search&utm_source=I9B0QSjMxHLCA6zVxBoDNw", "review_count": 121, "categories": [{"alias": "thai", "title": "Thai"}], "rating": 3.0, "coordinates": {"latitude": 42.2830178464952, "longitude": -83.7467421591282}, "transactions": [], "price": "$", "location": {"address1": "226 N Fourth Ave", "address2": "", "address3": "", "city": "Ann Arbor", "zip_code": "48104", "country": "US", "state": "MI", "display_address": ["226 N Fourth Ave", "Ann Arbor, MI 48104"]}, "phone": "+17342130808", "display_phone": "(734) 213-0808", "distance": 103.21505616905068}, {"id": "fQ8c9S6jitKS5RT6S-ziGA", "alias": "zingermans-delicatessen-ann-arbor-2", "name": "Zingerman's Delicatessen", "image_url": "https://s3-media3.fl.yelpcdn.com/bphoto/bXscw9VM07HlNysNnIPmGQ/o.jpg", "is_closed": false, "url": "https://www.yelp.com/biz/zingermans-delicatessen-ann-arbor-2?adjust_creative=I9B0QSjMxHLCA6zVxBoDNw&utm_campaign=yelp_api_v3&utm_medium=api_v3_business_search&utm_source=I9B0QSjMxHLCA6zVxBoDNw", "review_count": 1675, "categories": [{"alias": "delis", "title": "Delis"}, {"alias": "breakfast_brunch", "title": "Breakfast & Brunch"}, {"alias": "sandwiches", "title": "Sandwiches"}], "rating": 4.0, "coordinates": {"latitude": 42.2844740041972, "longitude": -83.7452775306885}, "transactions": [], "price": "$$", "location": {"address1": "422 Detroit St", "address2": "", "address3": "", "city": "Ann Arbor", "zip_code": "48104", "country": "US", "state": "MI", "display_address": ["422 Detroit St", "Ann Arbor, MI 48104"]}, "phone": "+17346633354", "display_phone": "(734) 663-3354", "distance": 114.62367891359138}, {"id": "202DgbYFszL5i9JGkOMu8g", "alias": "scalawags-white-fish-kingsley", "name": "Scalawags White Fish", "image_url": "", "is_closed": false, "url": "https://www.yelp.com/biz/scalawags-white-fish-kingsley?adjust_creative=I9B0QSjMxHLCA6zVxBoDNw&utm_campaign=yelp_api_v3&utm_medium=api_v3_business_search&utm_source=I9B0QSjMxHLCA6zVxBoDNw", "review_count": 1, "categories": [{"alias": "seafood", "title": "Seafood"}], "rating": 3.0, "coordinates": {"latitude": 44.5756986737251, "longitude": -85.3459744155407}, "transactions": [], "location": {"address1": "303 E State St", "address2": "", "address3": "", "city": "Kingsley", "zip_code": "49649", "country": "US", "state": "MI", "display_address": ["303 E State St", "Kingsley, MI 49649"]}, "phone": "+12319338700", "display_phone": "(231) 933-8700", "distance": 115.14398748357681}], "total": 260, "region": {"center": {"longitude": -83.7464536, "latitude": 42.28392119999999}}}, "https://api.yelp.com/v3/businesses/searchlatitude-42.28392119999999_limit-10_longitude--83.7464536_sort_by-distance_term-food": {"businesses": [{"id": "ECNY7SdiTkUC7BLzBULybQ", "alias": "ann-arbor-farmers-market-ann-arbor", "name": "Ann Arbor Farmers Market", "image_url": "https://s3-media3.fl.yelpcdn.com/bphoto/5UFbl2uGFMb2q9T_M8qePA/o.jpg", "is_closed": false, "url": "https://www.yelp.com/biz/ann-arbor-farmers-market-ann-arbor?adjust_creative=I9B0QSjMxHLCA6zVxBoDNw&utm_campaign=yelp_api_v3&utm_medium=api_v3_business_search&utm_source=I9B0QSjMxHLCA6zVxBoDNw", "review_count": 70, "categories": [{"alias": "farmersmarket", "title": "Farmers Market"}], "rating": 4.5, "coordinates": {"latitude": 42.283957302397, "longitude": -83.746488458012}, "transactions": [], "price": "$$", "location": {"address1": "315 Detroit St", "address2": null, "address3": "", "city": "Ann Arbor", "zip_code": "48104", "country": "US", "state": "MI", "display_address": ["315 Detroit St", "Ann Arbor, MI 48104"]}, "phone": "+17349943276", "display_phone": "(734) 994-3276", "distance": 4.9333880785062885}, {"id": "L2Jn3Z-PTx0qHDW7IZR-uA", "alias": "maitelates-ann-arbor", "name": "Maitelates", "image_url": "https://s3-media4.fl.yelpcdn.com/bphoto/JGEXAkq1qwhAzryV-Xu1HA/o.jpg", "is_closed": false, "url": "https://www.yelp.com/biz/maitelates-ann-arbor?adjust_creative=I9B0QSjMxHLCA6zVxBoDNw&utm_campaign=yelp_api_v3&utm_medium=api_v3_business_search&utm_source=I9B0QSjMxHLCA6zVxBoDNw", "review_count": 2, "categories": [{"alias": "desserts", "title": "Desserts"}], "rating": 5.0, "coordinates": {"latitude": 42.28401, "longitude": -83.7465}, "transactions": [], "location": {"address1": "315 Detroit St", "address2": "", "address3": "Ann Arbor Farmer's Market", "city": "Ann Arbor", "zip_code": "48104", "country": "US", "state": "MI", "display_address": ["315 Detroit St", "Ann Arbor Farmer's Market", "Ann Arbor, MI 48104"]}, "phone": "", "display_phone": "", "distance": 5.572361504617243}, {"id": "tLReelL-Iqd7CMTEeRf8vA", "alias": "al-meida-ann-arbor", "name": "Al Meida", "image_url": "https://s3-media1.fl.yelpcdn.com/bphoto/ioo8WLxlalJbLC1kwfDRHg/o.jpg", "is_closed": false, "url": "https://www.yelp.com/biz/al-meida-ann-arbor?adjust_creative=I9B0QSjMxHLCA6zVxBoDNw&utm_campaign=yelp_api_v3&utm_medium=api_v3_business_search&utm_source=I9B0QSjMxHLCA6zVxBoDNw", "review_count": 2, "categories": [{"alias": "desserts", "title": "Desserts"}, {"alias": "importedfood", "title": "Imported Food"}], "rating": 5.0, "coordinates": {"latitude": 42.284012, "longitude": -83.74646}, "transactions": [], "price": "$$", "location": {"address1": "315 Detroit St", "address2": "", "address3": "", "city": "Ann Arbor", "zip_code": "48104", "country": "US", "state": "MI", "display_address": ["315 Detroit St", "Ann Arbor, MI 48104"]}, "phone": "", "display_phone": "", "distance": 17.50278176888373}, {"id": "5tA21JTO3xKfAI_NYCIJqg", "alias": "teriyaki-time-ann-arbor", "name": "Teriyaki Time", "image_url": "https://s3-media1.fl.yelpcdn.com/bphoto/mUoY5xsV-jk4sxfWFYvbKQ/o.jpg", "is_closed": false, "url": "https://www.yelp.com/biz/teriyaki-time-ann-arbor?adjust_creative=I9B0QSjMxHLCA6zVxBoDNw&utm_campaign=yelp_api_v3&utm_medium=api_v3_business_search&utm_source=I9B0QSjMxHLCA6zVxBoDNw", "review_count": 46, "categories": [{"alias": "japanese", "title": "Japanese"}, {"alias": "korean", "title": "Korean"}, {"alias": "asianfusion", "title": "Asian Fusion"}], "rating": 3.5, "coordinates": {"latitude": 42.2836799, "longitude": -83.74608}, "transactions": ["delivery"], "price": "$", "location": {"address1": "314 Detroit St", "address2": "", "address3": "", "city": "Ann Arbor", "zip_code": "48104", "country": "US", "state": "MI", "display_address": ["314 Detroit St", "Ann Arbor, MI 48104"]}, "phone": "+17349292272", "display_phone": "(734) 929-2272", "distance": 42.565472695650435}, {"id": "nB1ywihbAUa8Y9kIrAWOyw", "alias": "ann-arbor-spice-merchants-ann-arbor", "name": "Ann Arbor Spice Merchants", "image_url": "https://s3-media3.fl.yelpcdn.com/bphoto/b5sYCH4GpaPkRxKCRBlU-Q/o.jpg", "is_closed": false, "url": "https://www.yelp.com/biz/ann-arbor-spice-merchants-ann-arbor?adjust_creative=I9B0QSjMxHLCA6zVxBoDNw&utm_campaign=yelp_api_v3&utm_medium=api_v3_business_search&utm_source=I9B0QSjMxHLCA6zVxBoDNw", "review_count": 18, "categories": [{"alias": "herbsandspices", "title": "Herbs & Spices"}], "rating": 4.0, "coordinates": {"latitude": 42.2842895239592, "longitude": -83.7459287792444}, "transactions": [], "price": "$$", "location": {"address1": "401 N Fifth Ave", "address2": "", "address3": "Kerrytown Mall", "city": "Ann Arbor", "zip_code": "48104", "country": "US", "state": "MI", "display_address": ["401 N Fifth Ave", "Kerrytown Mall", "Ann Arbor, MI 48104"]}, "phone": "+17343325500", "display_phone": "(734) 332-5500", "distance": 50.388678408871904}, {"id": "W2VYLyvT8REOfVpEr2Gx0w", "alias": "everyday-wines-ann-arbor", "name": "Everyday Wines", "image_url": "https://s3-media3.fl.yelpcdn.com/bphoto/S7UJJVdJi0Rtd8WlxQ5fVQ/o.jpg", "is_closed": false, "url": "https://www.yelp.com/biz/everyday-wines-ann-arbor?adjust_creative=I9B0QSjMxHLCA6zVxBoDNw&utm_campaign=yelp_api_v3&utm_medium=api_v3_business_search&utm_source=I9B0QSjMxHLCA6zVxBoDNw", "review_count": 28, "categories": [{"alias": "beer_and_wine", "title": "Beer, Wine & Spirits"}], "rating": 4.5, "coordinates": {"latitude": 42.2843231, "longitude": -83.7460385}, "transactions": [], "price": "$$", "location": {"address1": "407 N 5th Ave", "address2": "", "address3": "", "city": "Ann Arbor", "zip_code": "48104", "country": "US", "state": "MI", "display_address": ["407 N 5th Ave", "Ann Arbor, MI 48104"]}, "phone": "+17348279463", "display_phone": "(734) 827-9463", "distance": 53.928872871986755}, {"id": "18NlgiRTcSo4NNsM_xs-OA", "alias": "kosmo-ann-arbor", "name": "Kosmo", "image_url": "https://s3-media3.fl.yelpcdn.com/bphoto/-0wIrYQz7xfSGl2BD4TUJw/o.jpg", "is_closed": false, "url": "https://www.yelp.com/biz/kosmo-ann-arbor?adjust_creative=I9B0QSjMxHLCA6zVxBoDNw&utm_campaign=yelp_api_v3&utm_medium=api_v3_business_search&utm_source=I9B0QSjMxHLCA6zVxBoDNw", "review_count": 111, "categories": [{"alias": "korean", "title": "Korean"}, {"alias": "tradamerican", "title": "American (Traditional)"}, {"alias": "sandwiches", "title": "Sandwiches"}], "rating": 3.5, "coordinates": {"latitude": 42.2843231, "longitude": -83.7460385}, "transactions": [], "price": "$", "location": {"address1": "407 N 5th Ave", "address2": "Fl 1", "address3": "", "city": "Ann Arbor", "zip_code": "48104", "country": "US", "state": "MI", "display_address": ["407 N 5th Ave", "Fl 1", "Ann Arbor, MI 48104"]}, "phone": "+17346684070", "display_phone": "(734) 668-4070", "distance": 53.928872871986755}, {"id": "G1isUdTxtaqemvOrLHVZKA", "alias": "sweetwaters-coffee-and-tea-ann-arbor-3", "name": "Sweetwaters Coffee & Tea", "image_url": "https://s3-media1.fl.yelpcdn.com/bphoto/DiZSu32s8H4PCkvR7tEFKQ/o.jpg", "is_closed": false, "url": "https://www.yelp.com/biz/sweetwaters-coffee-and-tea-ann-arbor-3?adjust_creative=I9B0QSjMxHLCA6zVxBoDNw&utm_campaign=yelp_api_v3&utm_medium=api_v3_business_search&utm_source=I9B0QSjMxHLCA6zVxBoDNw", "review_count": 44, "categories": [{"alias": "coffee", "title": "Coffee & Tea"}, {"alias": "desserts", "title": "Desserts"}], "rating": 3.5, "coordinates": {"latitude": 42.2843446829284, "longitude": -83.746017013448}, "transactions": [], "price": "$$", "location": {"address1": "407 N 5th Ave", "address2": "", "address3": "Kerrytown Market", "city": "Ann Arbor", "zip_code": "48104", "country": "US", "state": "MI", "display_address": ["407 N 5th Ave", "Kerrytown Market", "Ann Arbor, MI 48104"]}, "phone": "+17346220084", "display_phone": "(734) 622-0084", "distance": 59.22239184064383}, {"id": "XFImIH0ZKR3wTxKpDevhcQ", "alias": "detroit-street-filling-station-ann-arbor", "name": "Detroit Street Filling Station", "image_url": "https://s3-media1.fl.yelpcdn.com/bphoto/k2DHEADBbJ6wFBp3GTZkSA/o.jpg", "is_closed": false, "url": "https://www.yelp.com/biz/detroit-street-filling-station-ann-arbor?adjust_creative=I9B0QSjMxHLCA6zVxBoDNw&utm_campaign=yelp_api_v3&utm_medium=api_v3_business_search&utm_source=I9B0QSjMxHLCA6zVxBoDNw", "review_count": 48, "categories": [{"alias": "vegan", "title": "Vegan"}, {"alias": "jazzandblues", "title": "Jazz & Blues"}, {"alias": "vegetarian", "title": "Vegetarian"}], "rating": 3.5, "coordinates": {"latitude": 42.28333, "longitude": -83.7463099}, "transactions": [], "price": "$$", "location": {"address1": "300 Detroit St", "address2": null, "address3": "", "city": "Ann Arbor", "zip_code": "48104", "country": "US", "state": "MI", "display_address": ["300 Detroit St", "Ann Arbor, MI 48104"]}, "phone": "+17342242161", "display_phone": "(734) 224-2161", "distance": 61.26524359238311}, {"id": "IFxTOcBKuns5aAlNk2lHWw", "alias": "sparrow-meat-market-ann-arbor", "name": "Sparrow Meat Market", "image_url": "https://s3-media3.fl.yelpcdn.com/bphoto/8NGl7jE3L9_RERn7fBvzaQ/o.jpg", "is_closed": false, "url": "https://www.yelp.com/biz/sparrow-meat-market-ann-arbor?adjust_creative=I9B0QSjMxHLCA6zVxBoDNw&utm_campaign=yelp_api_v3&utm_medium=api_v3_business_search&utm_source=I9B0QSjMxHLCA6zVxBoDNw", "review_count": 62, "categories": [{"alias": "meats", "title": "Meat Shops"}, {"alias": "markets", "title": "Fruits & Veggies"}, {"alias": "grocery", "title": "Grocery"}], "rating": 4.5, "coordinates": {"latitude": 42.2843246, "longitude": -83.7460403}, "transactions": [], "price": "$$", "location": {"address1": "407 N 5th Ave", "address2": "", "address3": "", "city": "Ann Arbor", "zip_code": "48104", "country": "US", "state": "MI", "display_address": ["407 N 5th Ave", "Ann Arbor, MI 48104"]}, "phone": "+17347618175", "display_phone": "(734) 761-8175", "distance": 64.83746333141022}], "total": 1100, "region": {"center": {"longitude": -83.7464536, "latitude": 42.28392119999999}}}, "https://api.yelp.com/v3/businesses/searchlatitude-42.2377077_limit-10_longitude--83.7427498_sort_by-distance_term-food": {"businesses": [{"id": "tprGFujwN1VOYs6pNGlbXQ", "alias": "relish-ann-arbor", "name": "Relish", "image_url": "https://s3-media2.fl.yelpcdn.com/bphoto/Seo-yw-8tIXM9uHTEhdWpg/o.jpg", "is_closed": false, "url": "https://www.yelp.com/biz/relish-ann-arbor?adjust_creative=I9B0QSjMxHLCA6zVxBoDNw&utm_campaign=yelp_api_v3&utm_medium=api_v3_business_search&utm_source=I9B0QSjMxHLCA6zVxBoDNw", "review_count": 24, "categories": [{"alias": "bars", "title": "Bars"}, {"alias": "breakfast_brunch", "title": "Breakfast & Brunch"}, {"alias": "tradamerican", "title": "American (Traditional)"}], "rating": 4.0, "coordinates": {"latitude": 42.2389057864148, "longitude": -83.7405758873213}, "transactions": [], "price": "$$", "location": {"address1": "610 Hilton Blvd", "address2": "", "address3": "", "city": "Ann Arbor", "zip_code": "48108", "country": "US", "state": "MI", "display_address": ["610 Hilton Blvd", "Ann Arbor, MI 48108"]}, "phone": "+17343692810", "display_phone": "(734) 369-2810", "distance": 223.1055993414268}, {"id": "-7MH7ZaxMKfLl4_SwYWdGw", "alias": "los-amigos-restaurant-and-cantina-ann-arbor", "name": "Los Amigos Restaurant & Cantina", "image_url": "https://s3-media2.fl.yelpcdn.com/bphoto/Q9NoNnKeSuyzdaBFboOgMg/o.jpg", "is_closed": false, "url": "https://www.yelp.com/biz/los-amigos-restaurant-and-cantina-ann-arbor?adjust_creative=I9B0QSjMxHLCA6zVxBoDNw&utm_campaign=yelp_api_v3&utm_medium=api_v3_business_search&utm_source=I9B0QSjMxHLCA6zVxBoDNw", "review_count": 77, "categories": [{"alias": "mexican", "title": "Mexican"}], "rating": 3.0, "coordinates": {"latitude": 42.239958, "longitude": -83.740742}, "transactions": ["pickup", "restaurant_reservation"], "price": "$$", "location": {"address1": "625 Hilton Blvd", "address2": "", "address3": "", "city": "Ann Arbor", "zip_code": "48108", "country": "US", "state": "MI", "display_address": ["625 Hilton Blvd", "Ann Arbor, MI 48108"]}, "phone": "+17343270500", "display_phone": "(734) 327-0500", "distance": 299.885029159867}, {"id": "wKE5CRqFIQ22bcpV_Oh3nQ", "alias": "i-ce-ny-ann-arbor", "name": "I Ce Ny", "image_url": "https://s3-media2.fl.yelpcdn.com/bphoto/dfE1YvGOs5rqtWUdZdiwzg/o.jpg", "is_closed": false, "url": "https://www.yelp.com/biz/i-ce-ny-ann-arbor?adjust_creative=I9B0QSjMxHLCA6zVxBoDNw&utm_campaign=yelp_api_v3&utm_medium=api_v3_business_search&utm_source=I9B0QSjMxHLCA6zVxBoDNw", "review_count": 1, "categories": [{"alias": "icecream", "title": "Ice Cream & Frozen Yogurt"}], "rating": 5.0, "coordinates": {"latitude": 42.24016, "longitude": -83.745441}, "transactions": [], "location": {"address1": "100 Briarwood Cir", "address2": null, "address3": "", "city": "Ann Arbor", "zip_code": "48108", "country": "US", "state": "MI", "display_address": ["100 Briarwood Cir", "Ann Arbor, MI 48108"]}, "phone": "+17346600005", "display_phone": "(734) 660-0005", "distance": 351.33916661042144}, {"id": "X63qh9pJRPsSRKmd_A8q8A", "alias": "california-pizza-kitchen-at-briarwood-ann-arbor", "name": "California Pizza Kitchen at Briarwood", "image_url": "https://s3-media2.fl.yelpcdn.com/bphoto/ugEtmAyxn3AWZ0tRiOX-Tg/o.jpg", "is_closed": false, "url": "https://www.yelp.com/biz/california-pizza-kitchen-at-briarwood-ann-arbor?adjust_creative=I9B0QSjMxHLCA6zVxBoDNw&utm_campaign=yelp_api_v3&utm_medium=api_v3_business_search&utm_source=I9B0QSjMxHLCA6zVxBoDNw", "review_count": 73, "categories": [{"alias": "pizza", "title": "Pizza"}, {"alias": "newamerican", "title": "American (New)"}, {"alias": "salad", "title": "Salad"}], "rating": 3.5, "coordinates": {"latitude": 42.24064, "longitude": -83.744902}, "transactions": ["delivery", "pickup"], "price": "$$", "location": {"address1": "870 Briarwood Cir", "address2": "Briarwood Mall", "address3": "", "city": "Ann Arbor", "zip_code": "48108", "country": "US", "state": "MI", "display_address": ["870 Briarwood Cir", "Briarwood Mall", "Ann Arbor, MI 48108"]}, "phone": "+17342226320", "display_phone": "(734) 222-6320", "distance": 371.0844641540412}, {"id": "cl5398rWCGvyxgsCv9cztA", "alias": "chipotle-mexican-grill-ann-arbor-2", "name": "Chipotle Mexican Grill", "image_url": "https://s3-media2.fl.yelpcdn.com/bphoto/tfFlc9JTrWFjUyqr2m5gzQ/o.jpg", "is_closed": false, "url": "https://www.yelp.com/biz/chipotle-mexican-grill-ann-arbor-2?adjust_creative=I9B0QSjMxHLCA6zVxBoDNw&utm_campaign=yelp_api_v3&utm_medium=api_v3_business_search&utm_source=I9B0QSjMxHLCA6zVxBoDNw", "review_count": 38, "categories": [{"alias": "mexican", "title": "Mexican"}, {"alias": "hotdogs", "title": "Fast Food"}], "rating": 3.0, "coordinates": {"latitude": 42.2407151082672, "longitude": -83.7452072727328}, "transactions": [], "price": "$", "location": {"address1": "858 Briarwood Cir", "address2": "Ste E 130", "address3": "", "city": "Ann Arbor", "zip_code": "48108", "country": "US", "state": "MI", "display_address": ["858 Briarwood Cir", "Ste E 130", "Ann Arbor, MI 48108"]}, "phone": "+17347940600", "display_phone": "(734) 794-0600", "distance": 390.8404330785038}, {"id": "wdFyiQJ2Hegy6F4JK5aifg", "alias": "surf-city-squeeze-ann-arbor", "name": "Surf City Squeeze", "image_url": "https://s3-media3.fl.yelpcdn.com/bphoto/EBcIfGRuLueBWY5U8XiAsw/o.jpg", "is_closed": false, "url": "https://www.yelp.com/biz/surf-city-squeeze-ann-arbor?adjust_creative=I9B0QSjMxHLCA6zVxBoDNw&utm_campaign=yelp_api_v3&utm_medium=api_v3_business_search&utm_source=I9B0QSjMxHLCA6zVxBoDNw", "review_count": 2, "categories": [{"alias": "juicebars", "title": "Juice Bars & Smoothies"}], "rating": 1.5, "coordinates": {"latitude": 42.2425041, "longitude": -83.7450256}, "transactions": [], "price": "$$", "location": {"address1": "334 Briarwood Cir", "address2": "", "address3": "", "city": "Ann Arbor", "zip_code": "48108", "country": "US", "state": "MI", "display_address": ["334 Briarwood Cir", "Ann Arbor, MI 48108"]}, "phone": "+17346690575", "display_phone": "(734) 669-0575", "distance": 403.9912596136483}, {"id": "-x4AjG_lrNjxDhJazYPQhQ", "alias": "subway-ann-arbor-2", "name": "Subway", "image_url": "https://s3-media1.fl.yelpcdn.com/bphoto/Y95h7euALBZ_AgXh7mChDA/o.jpg", "is_closed": false, "url": "https://www.yelp.com/biz/subway-ann-arbor-2?adjust_creative=I9B0QSjMxHLCA6zVxBoDNw&utm_campaign=yelp_api_v3&utm_medium=api_v3_business_search&utm_source=I9B0QSjMxHLCA6zVxBoDNw", "review_count": 9, "categories": [{"alias": "sandwiches", "title": "Sandwiches"}, {"alias": "hotdogs", "title": "Fast Food"}], "rating": 2.5, "coordinates": {"latitude": 42.23474, "longitude": -83.73957}, "transactions": ["delivery", "pickup"], "price": "$", "location": {"address1": "3650 S State St", "address2": "", "address3": "", "city": "Ann Arbor", "zip_code": "48108", "country": "US", "state": "MI", "display_address": ["3650 S State St", "Ann Arbor, MI 48108"]}, "phone": "+17346657277", "display_phone": "(734) 665-7277", "distance": 406.8393158028506}, {"id": "1ndVYY18RY2eo4JBs3gmMg", "alias": "olgas-kitchen-ann-arbor", "name": "Olga's Kitchen", "image_url": "https://s3-media4.fl.yelpcdn.com/bphoto/sWJyLxgeKRr6j5br9J0EDw/o.jpg", "is_closed": false, "url": "https://www.yelp.com/biz/olgas-kitchen-ann-arbor?adjust_creative=I9B0QSjMxHLCA6zVxBoDNw&utm_campaign=yelp_api_v3&utm_medium=api_v3_business_search&utm_source=I9B0QSjMxHLCA6zVxBoDNw", "review_count": 48, "categories": [{"alias": "sandwiches", "title": "Sandwiches"}, {"alias": "salad", "title": "Salad"}, {"alias": "mediterranean", "title": "Mediterranean"}], "rating": 3.0, "coordinates": {"latitude": 42.2410337554897, "longitude": -83.7452357644048}, "transactions": ["delivery"], "price": "$", "location": {"address1": "Briarwood Mall", "address2": "452 Briarwood Unit F-117", "address3": "", "city": "Ann Arbor", "zip_code": "48108", "country": "US", "state": "MI", "display_address": ["Briarwood Mall", "452 Briarwood Unit F-117", "Ann Arbor, MI 48108"]}, "phone": "+17349940939", "display_phone": "(734) 994-0939", "distance": 422.68595277565805}, {"id": "5vGfAT2WCAlr9A8OPdK8wQ", "alias": "bravo-cucina-italiana-ann-arbor", "name": "Bravo! Cucina Italiana", "image_url": "https://s3-media1.fl.yelpcdn.com/bphoto/nAxcWuIA6-LqwUbxM8tGUQ/o.jpg", "is_closed": false, "url": "https://www.yelp.com/biz/bravo-cucina-italiana-ann-arbor?adjust_creative=I9B0QSjMxHLCA6zVxBoDNw&utm_campaign=yelp_api_v3&utm_medium=api_v3_business_search&utm_source=I9B0QSjMxHLCA6zVxBoDNw", "review_count": 80, "categories": [{"alias": "italian", "title": "Italian"}, {"alias": "desserts", "title": "Desserts"}, {"alias": "gluten_free", "title": "Gluten-Free"}], "rating": 3.5, "coordinates": {"latitude": 42.2382321, "longitude": -83.74387}, "transactions": ["delivery", "pickup"], "price": "$$", "location": {"address1": "760 Briarwood Cir", "address2": "", "address3": "", "city": "Ann Arbor", "zip_code": "48108", "country": "US", "state": "MI", "display_address": ["760 Briarwood Cir", "Ann Arbor, MI 48108"]}, "phone": "+17347476200", "display_phone": "(734) 747-6200", "distance": 429.89673187657746}, {"id": "nFXhXOPzji4DTQTTgFE05w", "alias": "tatsu-sushi-ann-arbor", "name": "Tatsu Sushi", "image_url": "https://s3-media1.fl.yelpcdn.com/bphoto/LjZJWTIu-kFcc1QtUHS3BA/o.jpg", "is_closed": false, "url": "https://www.yelp.com/biz/tatsu-sushi-ann-arbor?adjust_creative=I9B0QSjMxHLCA6zVxBoDNw&utm_campaign=yelp_api_v3&utm_medium=api_v3_business_search&utm_source=I9B0QSjMxHLCA6zVxBoDNw", "review_count": 16, "categories": [{"alias": "sushi", "title": "Sushi Bars"}, {"alias": "korean", "title": "Korean"}, {"alias": "japanese", "title": "Japanese"}], "rating": 2.5, "coordinates": {"latitude": 42.240281891109, "longitude": -83.7467123195529}, "transactions": [], "price": "$", "location": {"address1": "100 Briarwood Cir", "address2": "", "address3": "", "city": "Ann Arbor", "zip_code": "", "country": "US", "state": "MI", "display_address": ["100 Briarwood Cir", "Ann Arbor, MI"]}, "phone": "+17349961880", "display_phone": "(734) 996-1880", "distance": 433.9833089436534}], "total": 1000, "region": {"center": {"longitude": -83.7427498, "latitude": 42.2377077}}}, "https://api.yelp.com/v3/businesses/searchlatitude-42.212067_limit-10_longitude--83.794632_sort_by-distance_term-food": {"businesses": [{"id": "p4Nad3u6PD03cJEn8VtiEw", "alias": "tippins-market-ann-arbor", "name": "Tippins Market", "image_url": "https://s3-media1.fl.yelpcdn.com/bphoto/1nuDhWMz_utMksnDAcbpTA/o.jpg", "is_closed": false, "url": "https://www.yelp.com/biz/tippins-market-ann-arbor?adjust_creative=I9B0QSjMxHLCA6zVxBoDNw&utm_campaign=yelp_api_v3&utm_medium=api_v3_business_search&utm_source=I9B0QSjMxHLCA6zVxBoDNw", "review_count": 31, "categories": [{"alias": "beer_and_wine", "title": "Beer, Wine & Spirits"}, {"alias": "pizza", "title": "Pizza"}], "rating": 4.0, "coordinates": {"latitude": 42.214255, "longitude": -83.7966409}, "transactions": [], "price": "$$", "location": {"address1": "4845 Ann Arbor Saline Rd", "address2": "", "address3": "", "city": "Ann Arbor", "zip_code": "48103", "country": "US", "state": "MI", "display_address": ["4845 Ann Arbor Saline Rd", "Ann Arbor, MI 48103"]}, "phone": "+17346653690", "display_phone": "(734) 665-3690", "distance": 294.2183322565745}, {"id": "3VgSvR9jnKaMv5hnRTu_lw", "alias": "gwens-cake-decorating-and-etc-saline", "name": "Gwen's Cake Decorating & Etc", "image_url": "https://s3-media3.fl.yelpcdn.com/bphoto/1MRuL4KO73DXaINhl1d3QA/o.jpg", "is_closed": false, "url": "https://www.yelp.com/biz/gwens-cake-decorating-and-etc-saline?adjust_creative=I9B0QSjMxHLCA6zVxBoDNw&utm_campaign=yelp_api_v3&utm_medium=api_v3_business_search&utm_source=I9B0QSjMxHLCA6zVxBoDNw", "review_count": 7, "categories": [{"alias": "bakeries", "title": "Bakeries"}], "rating": 3.5, "coordinates": {"latitude": 42.2028427124023, "longitude": -83.7962875366211}, "transactions": [], "price": "$$", "location": {"address1": "5714 Blue Grass Ln", "address2": null, "address3": null, "city": "Saline", "zip_code": "48176", "country": "US", "state": "MI", "display_address": ["5714 Blue Grass Ln", "Saline, MI 48176"]}, "phone": "+17344292039", "display_phone": "(734) 429-2039", "distance": 1034.7896969089852}, {"id": "Fsaka2I2_3dCI8782NpdiA", "alias": "delivice-ann-arbor-2", "name": "Delivice", "image_url": "https://s3-media3.fl.yelpcdn.com/bphoto/TdJs-oV5tcwsp6yMJ0q6_A/o.jpg", "is_closed": false, "url": "https://www.yelp.com/biz/delivice-ann-arbor-2?adjust_creative=I9B0QSjMxHLCA6zVxBoDNw&utm_campaign=yelp_api_v3&utm_medium=api_v3_business_search&utm_source=I9B0QSjMxHLCA6zVxBoDNw", "review_count": 2, "categories": [{"alias": "fooddeliveryservices", "title": "Food Delivery Services"}, {"alias": "grocery", "title": "Grocery"}], "rating": 4.5, "coordinates": {"latitude": 42.2143707, "longitude": -83.7589722}, "transactions": ["delivery", "pickup"], "price": "$", "location": {"address1": "5004 Lohr Rd", "address2": null, "address3": "", "city": "Ann Arbor", "zip_code": "48108", "country": "US", "state": "MI", "display_address": ["5004 Lohr Rd", "Ann Arbor, MI 48108"]}, "phone": "+17347078837", "display_phone": "(734) 707-8837", "distance": 2947.8758055748904}, {"id": "NxJEX3U_rCHMZn8OJKU-nQ", "alias": "five-guys-pittsfield-2", "name": "Five Guys", "image_url": "https://s3-media1.fl.yelpcdn.com/bphoto/IBEVlkoeBJIrhdKoEJvGPg/o.jpg", "is_closed": false, "url": "https://www.yelp.com/biz/five-guys-pittsfield-2?adjust_creative=I9B0QSjMxHLCA6zVxBoDNw&utm_campaign=yelp_api_v3&utm_medium=api_v3_business_search&utm_source=I9B0QSjMxHLCA6zVxBoDNw", "review_count": 20, "categories": [{"alias": "burgers", "title": "Burgers"}, {"alias": "hotdogs", "title": "Fast Food"}], "rating": 3.5, "coordinates": {"latitude": 42.240494, "longitude": -83.769077}, "transactions": [], "price": "$", "location": {"address1": "3155 Ann Arbor Saline Rd", "address2": "", "address3": "", "city": "Pittsfield", "zip_code": "48103", "country": "US", "state": "MI", "display_address": ["3155 Ann Arbor Saline Rd", "Pittsfield, MI 48103"]}, "phone": "+17349975050", "display_phone": "(734) 997-5050", "distance": 3797.2477202120535}, {"id": "0BrlCLgmoaBJA4vSkPEyyg", "alias": "pancheros-mexican-grill-pittsfield-township", "name": "Pancheros Mexican Grill", "image_url": "https://s3-media1.fl.yelpcdn.com/bphoto/aQA3Y83m9ZrnJnQvbdKFbw/o.jpg", "is_closed": false, "url": "https://www.yelp.com/biz/pancheros-mexican-grill-pittsfield-township?adjust_creative=I9B0QSjMxHLCA6zVxBoDNw&utm_campaign=yelp_api_v3&utm_medium=api_v3_business_search&utm_source=I9B0QSjMxHLCA6zVxBoDNw", "review_count": 32, "categories": [{"alias": "mexican", "title": "Mexican"}], "rating": 2.5, "coordinates": {"latitude": 42.2406423898352, "longitude": -83.7690625832702}, "transactions": [], "price": "$", "location": {"address1": "3155 Ann Arbor Saline Rd", "address2": "", "address3": "", "city": "Pittsfield Township", "zip_code": "48104", "country": "US", "state": "MI", "display_address": ["3155 Ann Arbor Saline Rd", "Pittsfield Township, MI 48104"]}, "phone": "+17343324640", "display_phone": "(734) 332-4640", "distance": 3811.6480769594714}, {"id": "oM80Q6Da6lCFPgEgJ3j9LA", "alias": "texas-roadhouse-ann-arbor", "name": "Texas Roadhouse", "image_url": "https://s3-media1.fl.yelpcdn.com/bphoto/mHirW2faMGDoMLNU7cK-Kw/o.jpg", "is_closed": false, "url": "https://www.yelp.com/biz/texas-roadhouse-ann-arbor?adjust_creative=I9B0QSjMxHLCA6zVxBoDNw&utm_campaign=yelp_api_v3&utm_medium=api_v3_business_search&utm_source=I9B0QSjMxHLCA6zVxBoDNw", "review_count": 50, "categories": [{"alias": "steak", "title": "Steakhouses"}, {"alias": "bbq", "title": "Barbeque"}], "rating": 3.5, "coordinates": {"latitude": 42.2414757973252, "longitude": -83.7704740092158}, "transactions": [], "price": "$$", "location": {"address1": "3133 Ann Arbor Saline Rd", "address2": "", "address3": "", "city": "Ann Arbor", "zip_code": "48103", "country": "US", "state": "MI", "display_address": ["3133 Ann Arbor Saline Rd", "Ann Arbor, MI 48103"]}, "phone": "+17343328850", "display_phone": "(734) 332-8850", "distance": 3827.5656311087196}, {"id": "qZrD929ZptZpzlN5DDJ8nA", "alias": "meijer-ann-arbor-4", "name": "Meijer", "image_url": "https://s3-media1.fl.yelpcdn.com/bphoto/DxaDNF-dyP8AYcq1JiFErg/o.jpg", "is_closed": false, "url": "https://www.yelp.com/biz/meijer-ann-arbor-4?adjust_creative=I9B0QSjMxHLCA6zVxBoDNw&utm_campaign=yelp_api_v3&utm_medium=api_v3_business_search&utm_source=I9B0QSjMxHLCA6zVxBoDNw", "review_count": 2, "categories": [{"alias": "grocery", "title": "Grocery"}], "rating": 2.5, "coordinates": {"latitude": 42.2392907580394, "longitude": -83.7661298364401}, "transactions": [], "price": "$$", "location": {"address1": "3145 Ann Arbor-Saline Rd", "address2": "", "address3": null, "city": "Ann Arbor", "zip_code": "48103", "country": "US", "state": "MI", "display_address": ["3145 Ann Arbor-Saline Rd", "Ann Arbor, MI 48103"]}, "phone": "+17347697800", "display_phone": "(734) 769-7800", "distance": 3830.324690241528}, {"id": "cLiEM06kVgMX7k2CJ10cqw", "alias": "outback-steakhouse-ann-arbor", "name": "Outback Steakhouse", "image_url": "https://s3-media3.fl.yelpcdn.com/bphoto/NcksbuLs9h_0P49xQkjquA/o.jpg", "is_closed": false, "url": "https://www.yelp.com/biz/outback-steakhouse-ann-arbor?adjust_creative=I9B0QSjMxHLCA6zVxBoDNw&utm_campaign=yelp_api_v3&utm_medium=api_v3_business_search&utm_source=I9B0QSjMxHLCA6zVxBoDNw", "review_count": 63, "categories": [{"alias": "steak", "title": "Steakhouses"}], "rating": 3.0, "coordinates": {"latitude": 42.241490053018, "longitude": -83.7704028846727}, "transactions": [], "price": "$$", "location": {"address1": "3173 Oak Valley Dr", "address2": "", "address3": "", "city": "Ann Arbor", "zip_code": "48103", "country": "US", "state": "MI", "display_address": ["3173 Oak Valley Dr", "Ann Arbor, MI 48103"]}, "phone": "+17346627400", "display_phone": "(734) 662-7400", "distance": 3831.965531094785}, {"id": "3T0DimQdBFcaqfDzOvnSBg", "alias": "buddys-restaurant-pizzeria-ann-arbor", "name": "Buddy's Restaurant Pizzeria", "image_url": "https://s3-media1.fl.yelpcdn.com/bphoto/3oyc3aJj7fnsbWS6iNHfdQ/o.jpg", "is_closed": false, "url": "https://www.yelp.com/biz/buddys-restaurant-pizzeria-ann-arbor?adjust_creative=I9B0QSjMxHLCA6zVxBoDNw&utm_campaign=yelp_api_v3&utm_medium=api_v3_business_search&utm_source=I9B0QSjMxHLCA6zVxBoDNw", "review_count": 47, "categories": [{"alias": "pizza", "title": "Pizza"}], "rating": 3.5, "coordinates": {"latitude": 42.2407680879754, "longitude": -83.768447405909}, "transactions": [], "price": "$$", "location": {"address1": "3153 Ann Arbor-Saline Rd", "address2": "", "address3": null, "city": "Ann Arbor", "zip_code": "48108", "country": "US", "state": "MI", "display_address": ["3153 Ann Arbor-Saline Rd", "Ann Arbor, MI 48108"]}, "phone": "+17347929130", "display_phone": "(734) 792-9130", "distance": 3851.431175692098}, {"id": "y3dVChSa5c0m8jAQJvH6Vg", "alias": "arirang-ann-arbor", "name": "Arirang", "image_url": "https://s3-media2.fl.yelpcdn.com/bphoto/WdbwIlqgiQYFA9qqpAf6eg/o.jpg", "is_closed": false, "url": "https://www.yelp.com/biz/arirang-ann-arbor?adjust_creative=I9B0QSjMxHLCA6zVxBoDNw&utm_campaign=yelp_api_v3&utm_medium=api_v3_business_search&utm_source=I9B0QSjMxHLCA6zVxBoDNw", "review_count": 151, "categories": [{"alias": "korean", "title": "Korean"}], "rating": 4.0, "coordinates": {"latitude": 42.2407785, "longitude": -83.7707544}, "transactions": [], "price": "$$", "location": {"address1": "3135 Oak Valley Dr", "address2": "", "address3": "", "city": "Ann Arbor", "zip_code": "48103", "country": "US", "state": "MI", "display_address": ["3135 Oak Valley Dr", "Ann Arbor, MI 48103"]}, "phone": "+17342225959", "display_phone": "(734) 222-5959", "distance": 3874.8481697903585}], "total": 1000, "region": {"center": {"longitude": -83.794632, "latitude": 42.212067}}}, "https://api.yelp.com/v3/businesses/searchlatitude-0.0_limit-10_longitude-0.0_sort_by-distance_term-food": {"error": {"code": "LOCATION_MISSING", "description": "You must specify either a location or a latitude and longitude to search."}}, "https://api.yelp.com/v3/businesses/searchlatitude-42.2569469_limit-10_longitude--84.41009059999999_sort_by-distance_term-food": {"businesses": [{"id": "vQS5rXZv8nS-GC3SXN7aew", "alias": "international-dog-house-jackson", "name": "International Dog House", "image_url": "https://s3-media3.fl.yelpcdn.com/bphoto/3g0m1h5jY2P6HksB_cRNeQ/o.jpg", "is_closed": false, "url": "https://www.yelp.com/biz/international-dog-house-jackson?adjust_creative=I9B0QSjMxHLCA6zVxBoDNw&utm_campaign=yelp_api_v3&utm_medium=api_v3_business_search&utm_source=I9B0QSjMxHLCA6zVxBoDNw", "review_count": 19, "categories": [{"alias": "hotdog", "title": "Hot Dogs"}], "rating": 4.0, "coordinates": {"latitude": 42.2584228515625, "longitude": -84.4167861938477}, "transactions": [], "price": "$", "location": {"address1": "800 Lansing Ave", "address2": "", "address3": "", "city": "Jackson", "zip_code": "49202", "country": "US", "state": "MI", "display_address": ["800 Lansing Ave", "Jackson, MI 49202"]}, "phone": "+15177831031", "display_phone": "(517) 783-1031", "distance": 574.0652610229678}, {"id": "lrJ3PkSg86UKeTF05esvfQ", "alias": "oak-tree-lounge-jackson", "name": "Oak Tree Lounge", "image_url": "https://s3-media2.fl.yelpcdn.com/bphoto/f5rVkjg530cH_XHduuoeTA/o.jpg", "is_closed": false, "url": "https://www.yelp.com/biz/oak-tree-lounge-jackson?adjust_creative=I9B0QSjMxHLCA6zVxBoDNw&utm_campaign=yelp_api_v3&utm_medium=api_v3_business_search&utm_source=I9B0QSjMxHLCA6zVxBoDNw", "review_count": 69, "categories": [{"alias": "bars", "title": "Bars"}, {"alias": "tradamerican", "title": "American (Traditional)"}, {"alias": "burgers", "title": "Burgers"}], "rating": 4.5, "coordinates": {"latitude": 42.25316, "longitude": -84.40459}, "transactions": [], "price": "$", "location": {"address1": "617 Oak St", "address2": "", "address3": "", "city": "Jackson", "zip_code": "49201", "country": "US", "state": "MI", "display_address": ["617 Oak St", "Jackson, MI 49201"]}, "phone": "+15177835823", "display_phone": "(517) 783-5823", "distance": 614.5175708680885}, {"id": "5ZfLxxVEK70wDXDWm8lZaQ", "alias": "cork-n-cap-jackson", "name": "Cork N Cap", "image_url": "https://s3-media1.fl.yelpcdn.com/bphoto/FlC2D2soCXkzt_LeEnexMA/o.jpg", "is_closed": false, "url": "https://www.yelp.com/biz/cork-n-cap-jackson?adjust_creative=I9B0QSjMxHLCA6zVxBoDNw&utm_campaign=yelp_api_v3&utm_medium=api_v3_business_search&utm_source=I9B0QSjMxHLCA6zVxBoDNw", "review_count": 1, "categories": [{"alias": "beer_and_wine", "title": "Beer, Wine & Spirits"}], "rating": 2.0, "coordinates": {"latitude": 42.2592863, "longitude": -84.4170005}, "transactions": [], "price": "$$$", "location": {"address1": "904 Lansing Ave", "address2": "", "address3": "", "city": "Jackson", "zip_code": "49202", "country": "US", "state": "MI", "display_address": ["904 Lansing Ave", "Jackson, MI 49202"]}, "phone": "+15177840687", "display_phone": "(517) 784-0687", "distance": 620.4574182822369}, {"id": "TYqRpGEfDqs1JxGjYRTRcw", "alias": "nicks-party-store-jackson", "name": "Nick's Party Store", "image_url": "", "is_closed": false, "url": "https://www.yelp.com/biz/nicks-party-store-jackson?adjust_creative=I9B0QSjMxHLCA6zVxBoDNw&utm_campaign=yelp_api_v3&utm_medium=api_v3_business_search&utm_source=I9B0QSjMxHLCA6zVxBoDNw", "review_count": 1, "categories": [{"alias": "convenience", "title": "Convenience Stores"}], "rating": 4.0, "coordinates": {"latitude": 42.2605019, "longitude": -84.4035263}, "transactions": [], "price": "$", "location": {"address1": "1033 Cooper St", "address2": "", "address3": "", "city": "Jackson", "zip_code": "49202", "country": "US", "state": "MI", "display_address": ["1033 Cooper St", "Jackson, MI 49202"]}, "phone": "+15178170478", "display_phone": "(517) 817-0478", "distance": 665.2967568524207}, {"id": "dWm5i7SETPWUs3mf0M6rYw", "alias": "greystone-tavern-jackson", "name": "Greystone Tavern", "image_url": "https://s3-media1.fl.yelpcdn.com/bphoto/YAwv4aR2gdbq7ZH_m7YIjg/o.jpg", "is_closed": false, "url": "https://www.yelp.com/biz/greystone-tavern-jackson?adjust_creative=I9B0QSjMxHLCA6zVxBoDNw&utm_campaign=yelp_api_v3&utm_medium=api_v3_business_search&utm_source=I9B0QSjMxHLCA6zVxBoDNw", "review_count": 13, "categories": [{"alias": "bars", "title": "Bars"}, {"alias": "tradamerican", "title": "American (Traditional)"}], "rating": 4.0, "coordinates": {"latitude": 42.2610893249512, "longitude": -84.4176483154297}, "transactions": [], "price": "$", "location": {"address1": "1008 Lansing Ave", "address2": "", "address3": "", "city": "Jackson", "zip_code": "49202", "country": "US", "state": "MI", "display_address": ["1008 Lansing Ave", "Jackson, MI 49202"]}, "phone": "+15177896050", "display_phone": "(517) 789-6050", "distance": 773.7888999185988}, {"id": "oyUSLB4P8g9OycZiSCj7_w", "alias": "annas-porch-cafe-jackson", "name": "Anna's Porch Cafe", "image_url": "https://s3-media1.fl.yelpcdn.com/bphoto/LMywDeymXtuUOOFZpiXJwQ/o.jpg", "is_closed": false, "url": "https://www.yelp.com/biz/annas-porch-cafe-jackson?adjust_creative=I9B0QSjMxHLCA6zVxBoDNw&utm_campaign=yelp_api_v3&utm_medium=api_v3_business_search&utm_source=I9B0QSjMxHLCA6zVxBoDNw", "review_count": 30, "categories": [{"alias": "newamerican", "title": "American (New)"}, {"alias": "cafes", "title": "Cafes"}], "rating": 4.5, "coordinates": {"latitude": 42.25052, "longitude": -84.40536}, "transactions": [], "price": "$$", "location": {"address1": "401 N Mechanic St", "address2": "", "address3": "", "city": "Jackson", "zip_code": "49201", "country": "US", "state": "MI", "display_address": ["401 N Mechanic St", "Jackson, MI 49201"]}, "phone": "+15177834191", "display_phone": "(517) 783-4191", "distance": 807.0224370861226}, {"id": "tAuXfKGvD3eOOcy4FJnrpQ", "alias": "tracys-tavern-jackson", "name": "Tracy's Tavern", "image_url": "https://s3-media4.fl.yelpcdn.com/bphoto/dKCLQf1cOsdweeae8O7KbA/o.jpg", "is_closed": false, "url": "https://www.yelp.com/biz/tracys-tavern-jackson?adjust_creative=I9B0QSjMxHLCA6zVxBoDNw&utm_campaign=yelp_api_v3&utm_medium=api_v3_business_search&utm_source=I9B0QSjMxHLCA6zVxBoDNw", "review_count": 8, "categories": [{"alias": "divebars", "title": "Dive Bars"}, {"alias": "burgers", "title": "Burgers"}, {"alias": "tradamerican", "title": "American (Traditional)"}], "rating": 4.5, "coordinates": {"latitude": 42.2507012, "longitude": -84.4036189}, "transactions": [], "price": "$", "location": {"address1": "300 Homewild Ave", "address2": "", "address3": "", "city": "Jackson", "zip_code": "49201", "country": "US", "state": "MI", "display_address": ["300 Homewild Ave", "Jackson, MI 49201"]}, "phone": "+15177899492", "display_phone": "(517) 789-9492", "distance": 875.228031321326}, {"id": "h6QDiiErgT-87BhHm5mMWQ", "alias": "gilbert-chocolates-jackson", "name": "Gilbert Chocolates", "image_url": "https://s3-media3.fl.yelpcdn.com/bphoto/6Ek5S32xtGE3XZGYlloxyA/o.jpg", "is_closed": false, "url": "https://www.yelp.com/biz/gilbert-chocolates-jackson?adjust_creative=I9B0QSjMxHLCA6zVxBoDNw&utm_campaign=yelp_api_v3&utm_medium=api_v3_business_search&utm_source=I9B0QSjMxHLCA6zVxBoDNw", "review_count": 4, "categories": [{"alias": "chocolate", "title": "Chocolatiers & Shops"}], "rating": 5.0, "coordinates": {"latitude": 42.2489823, "longitude": -84.4083986}, "transactions": [], "price": "$$", "location": {"address1": "233 North Jackson St", "address2": "", "address3": "", "city": "Jackson", "zip_code": "49201", "country": "US", "state": "MI", "display_address": ["233 North Jackson St", "Jackson, MI 49201"]}, "phone": "+15177643141", "display_phone": "(517) 764-3141", "distance": 896.5041582370033}, {"id": "vYaPCCt14eahPLx10VipAA", "alias": "grand-river-brewery-jackson", "name": "Grand River Brewery", "image_url": "https://s3-media3.fl.yelpcdn.com/bphoto/a2JjtdmFbew_Lr4w-UvGHg/o.jpg", "is_closed": false, "url": "https://www.yelp.com/biz/grand-river-brewery-jackson?adjust_creative=I9B0QSjMxHLCA6zVxBoDNw&utm_campaign=yelp_api_v3&utm_medium=api_v3_business_search&utm_source=I9B0QSjMxHLCA6zVxBoDNw", "review_count": 143, "categories": [{"alias": "breweries", "title": "Breweries"}, {"alias": "distilleries", "title": "Distilleries"}, {"alias": "newamerican", "title": "American (New)"}], "rating": 4.0, "coordinates": {"latitude": 42.2491976, "longitude": -84.4069612}, "transactions": [], "price": "$$", "location": {"address1": "117 W Louis Glick Hwy", "address2": "", "address3": "", "city": "Jackson", "zip_code": "49201", "country": "US", "state": "MI", "display_address": ["117 W Louis Glick Hwy", "Jackson, MI 49201"]}, "phone": "+15179622427", "display_phone": "(517) 962-2427", "distance": 899.3523101415816}, {"id": "NE0EA9RdJq9-e607YCvQKw", "alias": "steves-ranch-jackson", "name": "Steve's Ranch", "image_url": "https://s3-media2.fl.yelpcdn.com/bphoto/oIh4PorMLNqxNS8BpYDGAQ/o.jpg", "is_closed": false, "url": "https://www.yelp.com/biz/steves-ranch-jackson?adjust_creative=I9B0QSjMxHLCA6zVxBoDNw&utm_campaign=yelp_api_v3&utm_medium=api_v3_business_search&utm_source=I9B0QSjMxHLCA6zVxBoDNw", "review_count": 18, "categories": [{"alias": "steak", "title": "Steakhouses"}], "rating": 2.0, "coordinates": {"latitude": 42.24902, "longitude": -84.41239}, "transactions": [], "price": "$$", "location": {"address1": "311 Louis Glick Hwy", "address2": "", "address3": "", "city": "Jackson", "zip_code": "49201", "country": "US", "state": "MI", "display_address": ["311 Louis Glick Hwy", "Jackson, MI 49201"]}, "phone": "+15177874367", "display_phone": "(517) 787-4367", "distance": 909.4740541098594}], "total": 253, "region": {"center": {"longitude": -84.41009059999999, "latitude": 42.2569469}}}, "https://api.yelp.com/v3/businesses/searchlatitude-42.489412_limit-10_longitude--83.1411249_sort_by-distance_term-food": {"businesses": [{"id": "jbYk1Fx7lrU4s97cXxN8eA", "alias": "hot-diggity-dog-royal-oak", "name": "Hot Diggity Dog", "image_url": "", "is_closed": false, "url": "https://www.yelp.com/biz/hot-diggity-dog-royal-oak?adjust_creative=I9B0QSjMxHLCA6zVxBoDNw&utm_campaign=yelp_api_v3&utm_medium=api_v3_business_search&utm_source=I9B0QSjMxHLCA6zVxBoDNw", "review_count": 1, "categories": [{"alias": "food", "title": "Food"}], "rating": 4.0, "coordinates": {"latitude": 42.48946, "longitude": -83.14077}, "transactions": [], "location": {"address1": "316 E 11 Mile Rd", "address2": "", "address3": "", "city": "Royal Oak", "zip_code": "48067", "country": "US", "state": "MI", "display_address": ["316 E 11 Mile Rd", "Royal Oak, MI 48067"]}, "phone": "+12482463276", "display_phone": "(248) 246-3276", "distance": 3.129486014303459e-09}, {"id": "Sabu5YWyneAzTZYUjkNxww", "alias": "market-caf\u00e9-royal-oak", "name": "Market Caf\u00e9", "image_url": "https://s3-media3.fl.yelpcdn.com/bphoto/rgkEodXjePFEXkN94u3GGQ/o.jpg", "is_closed": false, "url": "https://www.yelp.com/biz/market-caf%C3%A9-royal-oak?adjust_creative=I9B0QSjMxHLCA6zVxBoDNw&utm_campaign=yelp_api_v3&utm_medium=api_v3_business_search&utm_source=I9B0QSjMxHLCA6zVxBoDNw", "review_count": 2, "categories": [{"alias": "breakfast_brunch", "title": "Breakfast & Brunch"}], "rating": 4.5, "coordinates": {"latitude": 42.4896615251099, "longitude": -83.1410118564963}, "transactions": [], "location": {"address1": "316 E 11 Mile Rd", "address2": "", "address3": "", "city": "Royal Oak", "zip_code": "48067", "country": "US", "state": "MI", "display_address": ["316 E 11 Mile Rd", "Royal Oak, MI 48067"]}, "phone": "", "display_phone": "", "distance": 29.253194377838792}, {"id": "Z9Ym80MobGsr5hk4BFk-5Q", "alias": "royal-oak-farmers-market-royal-oak", "name": "Royal Oak Farmers Market", "image_url": "https://s3-media2.fl.yelpcdn.com/bphoto/yniFn87C8ZdMiKmSURQNMg/o.jpg", "is_closed": false, "url": "https://www.yelp.com/biz/royal-oak-farmers-market-royal-oak?adjust_creative=I9B0QSjMxHLCA6zVxBoDNw&utm_campaign=yelp_api_v3&utm_medium=api_v3_business_search&utm_source=I9B0QSjMxHLCA6zVxBoDNw", "review_count": 86, "categories": [{"alias": "markets", "title": "Fruits & Veggies"}, {"alias": "farmersmarket", "title": "Farmers Market"}], "rating": 4.5, "coordinates": {"latitude": 42.48946, "longitude": -83.140671}, "transactions": [], "price": "$$", "location": {"address1": "316 E 11 Mile Rd", "address2": "", "address3": "", "city": "Royal Oak", "zip_code": "48067", "country": "US", "state": "MI", "display_address": ["316 E 11 Mile Rd", "Royal Oak, MI 48067"]}, "phone": "+12482463276", "display_phone": "(248) 246-3276", "distance": 37.59841218124431}, {"id": "WwofLaTg-70RV8BcBVOVyA", "alias": "sip-savor-stomp-at-royal-oak-farmers-market-royal-oak", "name": "Sip Savor Stomp At Royal Oak Farmers Market", "image_url": "", "is_closed": false, "url": "https://www.yelp.com/biz/sip-savor-stomp-at-royal-oak-farmers-market-royal-oak?adjust_creative=I9B0QSjMxHLCA6zVxBoDNw&utm_campaign=yelp_api_v3&utm_medium=api_v3_business_search&utm_source=I9B0QSjMxHLCA6zVxBoDNw", "review_count": 1, "categories": [{"alias": "farmersmarket", "title": "Farmers Market"}], "rating": 5.0, "coordinates": {"latitude": 42.48946, "longitude": -83.14077}, "transactions": [], "price": "$$", "location": {"address1": "316 E 11 Mile Rd", "address2": "", "address3": "", "city": "Royal Oak", "zip_code": "48067", "country": "US", "state": "MI", "display_address": ["316 E 11 Mile Rd", "Royal Oak, MI 48067"]}, "phone": "+12482463276", "display_phone": "(248) 246-3276", "distance": 43.64716678362145}, {"id": "lqUW9d8QisbPhZaYYeSSJQ", "alias": "superior-fish-royal-oak-2", "name": "Superior Fish", "image_url": "https://s3-media3.fl.yelpcdn.com/bphoto/oe5PENUNPj_VxmXQ3OnG5Q/o.jpg", "is_closed": false, "url": "https://www.yelp.com/biz/superior-fish-royal-oak-2?adjust_creative=I9B0QSjMxHLCA6zVxBoDNw&utm_campaign=yelp_api_v3&utm_medium=api_v3_business_search&utm_source=I9B0QSjMxHLCA6zVxBoDNw", "review_count": 26, "categories": [{"alias": "seafoodmarkets", "title": "Seafood Markets"}], "rating": 3.5, "coordinates": {"latitude": 42.49002, "longitude": -83.14187}, "transactions": [], "price": "$$", "location": {"address1": "309 E 11 Mile Rd", "address2": "", "address3": "", "city": "Royal Oak", "zip_code": "48067", "country": "US", "state": "MI", "display_address": ["309 E 11 Mile Rd", "Royal Oak, MI 48067"]}, "phone": "+12485414632", "display_phone": "(248) 541-4632", "distance": 111.49813518564099}, {"id": "Vx8qd0r4Zn_S0yYZRqQXRg", "alias": "the-grille-at-emagine-royal-oak-royal-oak", "name": "The Grille at Emagine - Royal Oak", "image_url": "https://s3-media3.fl.yelpcdn.com/bphoto/J0WM0PsSnHw2ckV3LDSgwQ/o.jpg", "is_closed": false, "url": "https://www.yelp.com/biz/the-grille-at-emagine-royal-oak-royal-oak?adjust_creative=I9B0QSjMxHLCA6zVxBoDNw&utm_campaign=yelp_api_v3&utm_medium=api_v3_business_search&utm_source=I9B0QSjMxHLCA6zVxBoDNw", "review_count": 4, "categories": [{"alias": "bbq", "title": "Barbeque"}], "rating": 3.5, "coordinates": {"latitude": 42.49047, "longitude": -83.14237}, "transactions": [], "price": "$$", "location": {"address1": "200 N Main St", "address2": null, "address3": null, "city": "Royal Oak", "zip_code": "48067", "country": "US", "state": "MI", "display_address": ["200 N Main St", "Royal Oak, MI 48067"]}, "phone": "+12484141000", "display_phone": "(248) 414-1000", "distance": 162.14618184748406}, {"id": "i1YneGQatqKNbIVaGf3IwA", "alias": "cafe-succo-royal-oak-royal-oak", "name": "Cafe Succo Royal Oak", "image_url": "https://s3-media1.fl.yelpcdn.com/bphoto/h47cdwyQSdqTZaVCbzeqXg/o.jpg", "is_closed": false, "url": "https://www.yelp.com/biz/cafe-succo-royal-oak-royal-oak?adjust_creative=I9B0QSjMxHLCA6zVxBoDNw&utm_campaign=yelp_api_v3&utm_medium=api_v3_business_search&utm_source=I9B0QSjMxHLCA6zVxBoDNw", "review_count": 13, "categories": [{"alias": "cafes", "title": "Cafes"}, {"alias": "juicebars", "title": "Juice Bars & Smoothies"}], "rating": 2.5, "coordinates": {"latitude": 42.4903315365065, "longitude": -83.142774782561}, "transactions": ["delivery", "pickup"], "price": "$", "location": {"address1": "304 N Main St", "address2": "", "address3": null, "city": "Royal Oak", "zip_code": "48067", "country": "US", "state": "MI", "display_address": ["304 N Main St", "Royal Oak, MI 48067"]}, "phone": "+12482120555", "display_phone": "(248) 212-0555", "distance": 169.57505862896625}, {"id": "24wM_TeHeJ4NW9iVWYtoMg", "alias": "living-foods-to-go-royal-oak", "name": "Living Foods To Go", "image_url": "https://s3-media4.fl.yelpcdn.com/bphoto/zZPaO8iKvn3GONItfzdmQw/o.jpg", "is_closed": false, "url": "https://www.yelp.com/biz/living-foods-to-go-royal-oak?adjust_creative=I9B0QSjMxHLCA6zVxBoDNw&utm_campaign=yelp_api_v3&utm_medium=api_v3_business_search&utm_source=I9B0QSjMxHLCA6zVxBoDNw", "review_count": 1, "categories": [{"alias": "foodtrucks", "title": "Food Trucks"}, {"alias": "vegetarian", "title": "Vegetarian"}, {"alias": "juicebars", "title": "Juice Bars & Smoothies"}], "rating": 2.0, "coordinates": {"latitude": 42.4881600649837, "longitude": -83.1424498558044}, "transactions": [], "location": {"address1": "615 South Altadena Ave", "address2": "", "address3": null, "city": "Royal Oak", "zip_code": "48067", "country": "US", "state": "MI", "display_address": ["615 South Altadena Ave", "Royal Oak, MI 48067"]}, "phone": "+12483210798", "display_phone": "(248) 321-0798", "distance": 176.5841676445641}, {"id": "1zv7eGu0zgPnvOpCRCVteg", "alias": "restaurant-connection-royal-oak-2", "name": "restaurant connection", "image_url": "https://s3-media4.fl.yelpcdn.com/bphoto/N1UHUKja9z_563kPRDhkcA/o.jpg", "is_closed": false, "url": "https://www.yelp.com/biz/restaurant-connection-royal-oak-2?adjust_creative=I9B0QSjMxHLCA6zVxBoDNw&utm_campaign=yelp_api_v3&utm_medium=api_v3_business_search&utm_source=I9B0QSjMxHLCA6zVxBoDNw", "review_count": 15, "categories": [{"alias": "fooddeliveryservices", "title": "Food Delivery Services"}], "rating": 1.5, "coordinates": {"latitude": 42.488151550293, "longitude": -83.1424407958984}, "transactions": [], "price": "$$", "location": {"address1": "", "address2": "", "address3": null, "city": "Royal Oak", "zip_code": "", "country": "US", "state": "MI", "display_address": ["Royal Oak, MI"]}, "phone": "+12485418888", "display_phone": "(248) 541-8888", "distance": 176.87737717064837}, {"id": "2f6pg6yqqrnc-BzjANNk4A", "alias": "the-waffle-wagon-royal-oak", "name": "The Waffle Wagon", "image_url": "https://s3-media4.fl.yelpcdn.com/bphoto/KI3CyINfAm4jKXzXwbq-Uw/o.jpg", "is_closed": false, "url": "https://www.yelp.com/biz/the-waffle-wagon-royal-oak?adjust_creative=I9B0QSjMxHLCA6zVxBoDNw&utm_campaign=yelp_api_v3&utm_medium=api_v3_business_search&utm_source=I9B0QSjMxHLCA6zVxBoDNw", "review_count": 1, "categories": [{"alias": "waffles", "title": "Waffles"}], "rating": 3.0, "coordinates": {"latitude": 42.4874861, "longitude": -83.1413315}, "transactions": [], "location": {"address1": "325 East 4th St", "address2": "", "address3": null, "city": "Royal Oak", "zip_code": "48067", "country": "US", "state": "MI", "display_address": ["325 East 4th St", "Royal Oak, MI 48067"]}, "phone": "", "display_phone": "", "distance": 203.12542216582352}], "total": 4200, "region": {"center": {"longitude": -83.1411249, "latitude": 42.489412}}}, "https://api.yelp.com/v3/businesses/searchlatitude-42.7875946_limit-10_longitude--86.1080914_sort_by-distance_term-food": {"businesses": [{"id": "aiGDtIxyJbWiQaV9Nd40aw", "alias": "the-kitchen-citysen-lounge-holland", "name": "The Kitchen @ Citysen Lounge", "image_url": "", "is_closed": false, "url": "https://www.yelp.com/biz/the-kitchen-citysen-lounge-holland?adjust_creative=I9B0QSjMxHLCA6zVxBoDNw&utm_campaign=yelp_api_v3&utm_medium=api_v3_business_search&utm_source=I9B0QSjMxHLCA6zVxBoDNw", "review_count": 1, "categories": [{"alias": "sushi", "title": "Sushi Bars"}], "rating": 3.0, "coordinates": {"latitude": 42.7915458679199, "longitude": -86.1049118041992}, "transactions": [], "location": {"address1": "61 E 7th St", "address2": "", "address3": "CityFlatsHotel", "city": "Holland", "zip_code": "49423", "country": "US", "state": "MI", "display_address": ["61 E 7th St", "CityFlatsHotel", "Holland, MI 49423"]}, "phone": "+16167962100", "display_phone": "(616) 796-2100", "distance": 68.89584609522235}, {"id": "kDChL39EuLR4lhLXuvDcaw", "alias": "parrots-lounge-holland", "name": "Parrots Lounge", "image_url": "", "is_closed": false, "url": "https://www.yelp.com/biz/parrots-lounge-holland?adjust_creative=I9B0QSjMxHLCA6zVxBoDNw&utm_campaign=yelp_api_v3&utm_medium=api_v3_business_search&utm_source=I9B0QSjMxHLCA6zVxBoDNw", "review_count": 14, "categories": [{"alias": "restaurants", "title": "Restaurants"}], "rating": 2.5, "coordinates": {"latitude": 42.7888163, "longitude": -86.1091904}, "transactions": [], "price": "$", "location": {"address1": "234 S River Ave", "address2": "", "address3": "", "city": "Holland", "zip_code": "49423", "country": "US", "state": "MI", "display_address": ["234 S River Ave", "Holland, MI 49423"]}, "phone": "+16163964577", "display_phone": "(616) 396-4577", "distance": 168.50703295741295}, {"id": "CmbUk72XdVpHtsUbcsrpqw", "alias": "poppin-huis-holland-3", "name": "Poppin Huis", "image_url": "https://s3-media4.fl.yelpcdn.com/bphoto/hMVD3igKbct5qP8pHRBhlg/o.jpg", "is_closed": false, "url": "https://www.yelp.com/biz/poppin-huis-holland-3?adjust_creative=I9B0QSjMxHLCA6zVxBoDNw&utm_campaign=yelp_api_v3&utm_medium=api_v3_business_search&utm_source=I9B0QSjMxHLCA6zVxBoDNw", "review_count": 1, "categories": [{"alias": "candy", "title": "Candy Stores"}, {"alias": "popcorn", "title": "Popcorn Shops"}], "rating": 5.0, "coordinates": {"latitude": 42.78909, "longitude": -86.10935}, "transactions": [], "price": "$", "location": {"address1": "224 S River Ave", "address2": null, "address3": "", "city": "Holland", "zip_code": "49423", "country": "US", "state": "MI", "display_address": ["224 S River Ave", "Holland, MI 49423"]}, "phone": "+16164946900", "display_phone": "(616) 494-6900", "distance": 188.98955198762505}, {"id": "EHJ0DlWLWd9Mq-PmJLoJKg", "alias": "michigan-pantry-holland", "name": "Michigan Pantry", "image_url": "https://s3-media3.fl.yelpcdn.com/bphoto/5U5uke-9nLEUFhXyKHzyoQ/o.jpg", "is_closed": false, "url": "https://www.yelp.com/biz/michigan-pantry-holland?adjust_creative=I9B0QSjMxHLCA6zVxBoDNw&utm_campaign=yelp_api_v3&utm_medium=api_v3_business_search&utm_source=I9B0QSjMxHLCA6zVxBoDNw", "review_count": 2, "categories": [{"alias": "food", "title": "Food"}], "rating": 3.5, "coordinates": {"latitude": 42.7896766662598, "longitude": -86.1092834472656}, "transactions": [], "price": "$$$", "location": {"address1": "210 River Ave", "address2": null, "address3": "", "city": "Holland", "zip_code": "49423", "country": "US", "state": "MI", "display_address": ["210 River Ave", "Holland, MI 49423"]}, "phone": "+16163964588", "display_phone": "(616) 396-4588", "distance": 251.27424463559353}, {"id": "20ciw2Sg97-XYIAnQdygFg", "alias": "8th-street-grille-holland", "name": "8th Street Grille", "image_url": "https://s3-media4.fl.yelpcdn.com/bphoto/NYTdzKcHyFfM3I9CWQjRyA/o.jpg", "is_closed": false, "url": "https://www.yelp.com/biz/8th-street-grille-holland?adjust_creative=I9B0QSjMxHLCA6zVxBoDNw&utm_campaign=yelp_api_v3&utm_medium=api_v3_business_search&utm_source=I9B0QSjMxHLCA6zVxBoDNw", "review_count": 101, "categories": [{"alias": "tradamerican", "title": "American (Traditional)"}], "rating": 3.5, "coordinates": {"latitude": 42.7900238037109, "longitude": -86.1082000732422}, "transactions": [], "price": "$$", "location": {"address1": "20 W 8th St", "address2": "", "address3": "", "city": "Holland", "zip_code": "49423", "country": "US", "state": "MI", "display_address": ["20 W 8th St", "Holland, MI 49423"]}, "phone": "+16163925888", "display_phone": "(616) 392-5888", "distance": 272.8110958987759}, {"id": "Yx2qWxWq3Vo7wKvSFKVsvg", "alias": "windmill-restaurant-holland", "name": "Windmill Restaurant", "image_url": "https://s3-media1.fl.yelpcdn.com/bphoto/KqFB4uQiGGLVuF4j6XaXig/o.jpg", "is_closed": false, "url": "https://www.yelp.com/biz/windmill-restaurant-holland?adjust_creative=I9B0QSjMxHLCA6zVxBoDNw&utm_campaign=yelp_api_v3&utm_medium=api_v3_business_search&utm_source=I9B0QSjMxHLCA6zVxBoDNw", "review_count": 165, "categories": [{"alias": "breakfast_brunch", "title": "Breakfast & Brunch"}, {"alias": "burgers", "title": "Burgers"}, {"alias": "sandwiches", "title": "Sandwiches"}], "rating": 4.0, "coordinates": {"latitude": 42.79002, "longitude": -86.10844}, "transactions": [], "price": "$", "location": {"address1": "28 W 8th St", "address2": "", "address3": "", "city": "Holland", "zip_code": "49423", "country": "US", "state": "MI", "display_address": ["28 W 8th St", "Holland, MI 49423"]}, "phone": "+16163922726", "display_phone": "(616) 392-2726", "distance": 273.37399618433994}, {"id": "05vzfhyXikDDgaVnbIlz-w", "alias": "peachwave-holland-2", "name": "Peachwave", "image_url": "https://s3-media4.fl.yelpcdn.com/bphoto/7MoXQtbKFfGktdfPdgs4dA/o.jpg", "is_closed": false, "url": "https://www.yelp.com/biz/peachwave-holland-2?adjust_creative=I9B0QSjMxHLCA6zVxBoDNw&utm_campaign=yelp_api_v3&utm_medium=api_v3_business_search&utm_source=I9B0QSjMxHLCA6zVxBoDNw", "review_count": 19, "categories": [{"alias": "icecream", "title": "Ice Cream & Frozen Yogurt"}], "rating": 4.5, "coordinates": {"latitude": 42.7900276184082, "longitude": -86.1075439453125}, "transactions": [], "price": "$", "location": {"address1": "6 W 8th St", "address2": "", "address3": "", "city": "Holland", "zip_code": "49423", "country": "US", "state": "MI", "display_address": ["6 W 8th St", "Holland, MI 49423"]}, "phone": "+16162982162", "display_phone": "(616) 298-2162", "distance": 274.3690681498031}, {"id": "AwdBGn1B9RGwGYZxQxtXrw", "alias": "seventy-six-holland", "name": "Seventy Six", "image_url": "https://s3-media3.fl.yelpcdn.com/bphoto/sj0z9U0tBtna1voDxZf-Wg/o.jpg", "is_closed": false, "url": "https://www.yelp.com/biz/seventy-six-holland?adjust_creative=I9B0QSjMxHLCA6zVxBoDNw&utm_campaign=yelp_api_v3&utm_medium=api_v3_business_search&utm_source=I9B0QSjMxHLCA6zVxBoDNw", "review_count": 16, "categories": [{"alias": "newamerican", "title": "American (New)"}, {"alias": "bars", "title": "Bars"}], "rating": 4.0, "coordinates": {"latitude": 42.78999, "longitude": -86.10975}, "transactions": [], "price": "$$$", "location": {"address1": "52 W 8th St", "address2": "", "address3": null, "city": "Holland", "zip_code": "49423", "country": "US", "state": "MI", "display_address": ["52 W 8th St", "Holland, MI 49423"]}, "phone": "+16169948414", "display_phone": "(616) 994-8414", "distance": 299.8357679867752}, {"id": "iUHYEn_jvZ74E77G8arwdQ", "alias": "alpenrose-restaurant-and-catering-holland", "name": "Alpenrose Restaurant & Catering", "image_url": "https://s3-media1.fl.yelpcdn.com/bphoto/DM6R5_AsdkaPVmpF3sUImg/o.jpg", "is_closed": false, "url": "https://www.yelp.com/biz/alpenrose-restaurant-and-catering-holland?adjust_creative=I9B0QSjMxHLCA6zVxBoDNw&utm_campaign=yelp_api_v3&utm_medium=api_v3_business_search&utm_source=I9B0QSjMxHLCA6zVxBoDNw", "review_count": 98, "categories": [{"alias": "breakfast_brunch", "title": "Breakfast & Brunch"}, {"alias": "modern_european", "title": "Modern European"}, {"alias": "cocktailbars", "title": "Cocktail Bars"}], "rating": 3.5, "coordinates": {"latitude": 42.7902007, "longitude": -86.1069047}, "transactions": [], "price": "$$", "location": {"address1": "4 E 8th St", "address2": "", "address3": "", "city": "Holland", "zip_code": "49423", "country": "US", "state": "MI", "display_address": ["4 E 8th St", "Holland, MI 49423"]}, "phone": "+16163932111", "display_phone": "(616) 393-2111", "distance": 305.5364862773042}, {"id": "VmGsjJWofp_4vBGdOv53_g", "alias": "warner-vineyards-holland-holland", "name": "Warner Vineyards Holland", "image_url": "https://s3-media1.fl.yelpcdn.com/bphoto/WWTywQMeQbErUchjPPu_rw/o.jpg", "is_closed": false, "url": "https://www.yelp.com/biz/warner-vineyards-holland-holland?adjust_creative=I9B0QSjMxHLCA6zVxBoDNw&utm_campaign=yelp_api_v3&utm_medium=api_v3_business_search&utm_source=I9B0QSjMxHLCA6zVxBoDNw", "review_count": 4, "categories": [{"alias": "beer_and_wine", "title": "Beer, Wine & Spirits"}], "rating": 4.0, "coordinates": {"latitude": 42.789981842041, "longitude": -86.1060256958008}, "transactions": [], "price": "$$", "location": {"address1": "26 E 8th St", "address2": "", "address3": "", "city": "Holland", "zip_code": "49423", "country": "US", "state": "MI", "display_address": ["26 E 8th St", "Holland, MI 49423"]}, "phone": "+16163949002", "display_phone": "(616) 394-9002", "distance": 314.49928661733054}], "total": 396, "region": {"center": {"longitude": -86.1080914, "latitude": 42.7875946}}}}